Unnamed: 0,price,address,bedrooms,bathrooms,floor_area,price_sqm,geometry.type,geometry.coordinates,latitude,longitude
20,470000,"Apartment 17, Amber, The Grange, Stillorgan, Co. Dublin",2,2,74.0,6351.0,Point,"[-6.1928515, 53.280368]",53.280368,-6.1928515
21,435000,"Apartment 1, House 5, Linden Square, Blackrock, Co. Dublin",2,2,79.0,5506.0,Point,"[-6.19043, 53.29279]",53.29279,-6.19043
22,1995000,"Karroc, 14 Myra Manor, Malahide, Co. Dublin",5,4,481.0,4148.0,Point,"[-6.173941399999999, 53.4327365]",53.4327365,-6.173941399999999
23,485000,"11 Reuben Avenue, Rialto, Rialto, Dublin 8",2,1,90.0,5389.0,Point,"[-6.2922444, 53.3351852]",53.3351852,-6.2922444
24,1975000,"Chipton, 25 Ailesbury Park, Ballsbridge, Dublin 4",5,2,285.0,6930.0,Point,"[-6.211598, 53.3203349]",53.3203349,-6.211598
25,245000,"4 Linnetfields Park, Clonee, Dublin 15",2,1,73.0,3356.0,Point,"[-6.4403085, 53.3986475]",53.3986475,-6.4403085
26,1695000,"54 Palmerston Road, Rathmines, Rathmines, Dublin 6",6,3,255.0,6647.0,Point,"[-6.2583763, 53.31726459999999]",53.31726459999999,-6.2583763
27,655000,"16 Seabury View, Malahide, Co. Dublin",4,3,130.0,5038.0,Point,"[-6.187079499999999, 53.4536548]",53.4536548,-6.187079499999999
28,975000,"74 Ard Na Mara, Malahide, Co. Dublin",4,3,161.0,6056.0,Point,"[-6.171890899999999, 53.4483135]",53.4483135,-6.171890899999999
29,1295000,"Parnell House, 4A Parnell Cottages, Malahide, Co. Dublin",4,3,200.0,6475.0,Point,"[-6.1564862, 53.4438854]",53.4438854,-6.1564862
30,585000,"1 Vale View Avenue, Cabinteely, Dublin 18",4,2,132.0,4432.0,Point,"[-6.161011999999999, 53.263353]",53.263353,-6.161011999999999
31,450000,"15 Baskin Cottages, Kinsealy, Co. Dublin",3,2,131.0,3435.0,Point,"[-6.193280199999999, 53.4238359]",53.4238359,-6.193280199999999
32,345000,"Apartment 49 Reuben Square, Block B, Reuben Street, South City Centre, Dublin 8",2,1,69.0,5000.0,Point,"[-6.2910965, 53.3343443]",53.3343443,-6.2910965
33,495000,"126 Brandon Square, Waterville, Blanchardstown, Dublin 15",5,5,185.0,2676.0,Point,"[-6.3686213, 53.3924463]",53.3924463,-6.3686213
34,515000,"11 Seabury Dale, Malahide, Co. Dublin",3,2,112.0,4598.0,Point,"[-6.183895199999999, 53.4547169]",53.4547169,-6.183895199999999
35,475000,"6 O'Carolan Road, South Circular Road, Dublin 8",3,1,75.0,6333.0,Point,"[-6.280226, 53.336092]",53.336092,-6.280226
36,1350000,"Castle Lodge Auburn, Back Road, Malahide, Co. Dublin",10,10,297.0,4545.0,Point,"[-6.1759347, 53.4401792]",53.4401792,-6.1759347
37,6750000,"Dungriffan, 2 Sydney Parade Avenue, Dublin 4",6,5,595.0,11345.0,Point,"[-6.2117722, 53.3214423]",53.3214423,-6.2117722
38,415000,"33 Shantalla Road, Beaumont, Beaumont, Dublin 9",3,1,87.0,4770.0,Point,"[-6.2341235, 53.3868246]",53.3868246,-6.2341235
39,450000,"16 Mountain View Drive, Churchtown, Dublin 14",3,1,80.0,5625.0,Point,"[-6.2625755, 53.2893786]",53.2893786,-6.2625755
40,875000,"5 Parnell Cottages, Malahide, Co. Dublin",4,3,180.0,4861.0,Point,"[-6.1564862, 53.4438854]",53.4438854,-6.1564862
41,2800000,"4 Willow Bank, Monkstown, Co. Dublin",6,3,341.0,8211.0,Point,"[-6.143232299999999, 53.2931024]",53.2931024,-6.143232299999999
42,750000,"28 The Quarry, Portmarnock, Co. Dublin",3,4,180.0,4167.0,Point,"[-6.1338314, 53.4315113]",53.4315113,-6.1338314
43,945000,"44 Shrewsbury Park, Ballsbridge, Dublin 4",3,2,146.0,6473.0,Point,"[-6.2185219, 53.3238229]",53.3238229,-6.2185219
44,350000,"51 Whitethorn Crescent, Palmerstown, Dublin 20",3,2,99.0,3535.0,Point,"[-6.3805593, 53.3453846]",53.3453846,-6.3805593
45,3950000,"106 Merrion Road Ballsbridge Dublin 4, Ballsbridge, Dublin 4",5,5,520.0,7596.0,Point,"[-6.2272111, 53.33200009999999]",53.33200009999999,-6.2272111
46,545000,"33 Mount Drummond Avenue, Harold`s Cross, D6, Harold's Cross, Dublin 6",2,2,71.0,7676.0,Point,"[-6.2745998, 53.32649740000001]",53.32649740000001,-6.2745998
47,365000,"23 The Park, Balbriggan Street, Skerries, Co. Dublin",2,1,61.0,5984.0,Point,"[-6.1127631, 53.5798589]",53.5798589,-6.1127631
48,1895000,"Leeson Mews, 41 Leeson Place, Dublin 2",4,3,186.0,10188.0,Point,"[-6.2550218, 53.332922]",53.332922,-6.2550218
49,360000,"Apartment 9 Sycamore House, Eaton Wood Square, Shankill, Dublin 18",2,2,65.0,5538.0,Point,"[-6.1165536, 53.23443229999999]",53.23443229999999,-6.1165536
50,345000,"20 Castlegate Green, Lucan, Co. Dublin",3,3,89.0,3876.0,Point,"[-6.459668, 53.338154]",53.338154,-6.459668
51,430000,"3 Elm Grove, Lucan, Co. Dublin",4,3,110.0,3909.0,Point,"[-6.4322442, 53.3451932]",53.3451932,-6.4322442
52,215000,"Apartment 57, Block 5, Donabate, Co. Dublin",1,1,48.0,4479.0,Point,"[-6.1452924, 53.48630319999999]",53.48630319999999,-6.1452924
53,250000,"1 Applewood Drive, Swords, Co. Dublin",2,2,66.0,3788.0,Point,"[-6.2341925, 53.4702608]",53.4702608,-6.2341925
54,375000,"5 Orchard Close, Beaverstown Road, Donabate, Co. Dublin",3,2,104.0,3606.0,Point,"[-6.1458357, 53.49466]",53.49466,-6.1458357
55,575000,"2 Inbhir Ide, Malahide, Co. Dublin",3,2,122.0,4713.0,Point,"[-6.166403000000001, 53.4517222]",53.4517222,-6.166403000000001
56,370000,"43 Waterside Lawn, Swords Road, Malahide, Co. Dublin",2,2,105.0,3524.0,Point,"[-6.201454, 53.4520872]",53.4520872,-6.201454
57,425000,"110 The Strand, Donabate, Co. Dublin",3,1,110.0,3864.0,Point,"[-6.1456968, 53.48343850000001]",53.48343850000001,-6.1456968
58,1495000,"Sandyford House, Sandyford Road, Sandyford, Dublin 18",4,5,233.0,6416.0,Point,"[-6.2249056, 53.2698124]",53.2698124,-6.2249056
59,950000,"Sea View, 50 Carrickbrack Hill, Sutton, Dublin 13",4,3,231.0,4113.0,Point,"[-6.0982027, 53.3786709]",53.3786709,-6.0982027
60,930000,"Sunnyside, 102 Clontarf Road, Clontarf, Dublin 3",4,1,126.0,7381.0,Point,"[-6.20617, 53.3604542]",53.3604542,-6.20617
61,2500000,"South Hill House, Merrion Park, Blackrock, Co. Dublin",9,6,561.0,4456.0,Point,"[-6.2014204, 53.2983219]",53.2983219,-6.2014204
62,295000,"90 Rialto Cottages, Rialto, Rialto, Dublin 8",2,1,45.0,6556.0,Point,"[-6.2975366, 53.3369106]",53.3369106,-6.2975366
63,350000,"19 Saint Samson's Square, Balgriffin, Dublin 13",3,3,102.0,3431.0,Point,"[-6.172132, 53.4079613]",53.4079613,-6.172132
64,895000,"21 Carrickbrack Lawn, Sutton, Sutton, Dublin 13",4,2,180.0,4972.0,Point,"[-6.0994718, 53.377971]",53.377971,-6.0994718
65,475000,"2 Mount Symon Rise, Clonsilla, Clonsilla, Dublin 15",4,3,118.0,4025.0,Point,"[-6.4232529, 53.3886956]",53.3886956,-6.4232529
66,595000,"57 Drumnigh Manor, Portmarnock, Co. Dublin",3,4,147.0,4048.0,Point,"[-6.1567386, 53.4137535]",53.4137535,-6.1567386
67,650000,"Remount Farm, Racecourse Commons, Lusk, Co. Dublin",4,2,190.0,3421.0,Point,"[-6.1585163, 53.5211165]",53.5211165,-6.1585163
69,275000,"Apartment 11 Marlfield Mall, Kiltipper Way, Tallaght, Dublin 24",3,2,87.0,3161.0,Point,"[-6.371735399999999, 53.2721877]",53.2721877,-6.371735399999999
70,350000,"23A The Drive, St. Catherine's Estate, Rush, Co. Dublin",4,3,98.0,3571.0,Point,"[-6.095627599999999, 53.5365428]",53.5365428,-6.095627599999999
71,1700000,"Apartment 12, Glaunsharoon, Donnybrook, Dublin 4",3,3,161.0,10559.0,Point,"[-6.2364378, 53.31945839999999]",53.31945839999999,-6.2364378
72,895000,"7 Hampton Park, Saint Helen's Wood, Booterstown, Co. Dublin",4,3,140.0,6393.0,Point,"[-6.2016687, 53.3021529]",53.3021529,-6.2016687
73,975000,"Dunamase, Dunamase, Old Frankfort, Dundrum Road, Dublin 14",4,4,175.0,5571.0,Point,"[-6.2488867, 53.297552]",53.297552,-6.2488867
74,1100000,"Lohengrin, 13 Charleville, Churchtown, Dublin 14",5,3,170.0,6471.0,Point,"[-6.247235300000001, 53.2936028]",53.2936028,-6.247235300000001
75,395000,"56 The Crescent, Carrickmines Manor, Carrickmines, Dublin 18",2,2,76.0,5197.0,Point,"[-6.1792217, 53.2499466]",53.2499466,-6.1792217
76,975000,"8 Castleview Park, Dublin Road, Malahide, Co. Dublin",4,2,126.0,7738.0,Point,"[-6.1707252, 53.4478891]",53.4478891,-6.1707252
77,1000000,"142 Drumnigh Wood, Portmarnock, Co. Dublin",4,4,299.0,3344.0,Point,"[-6.152223299999999, 53.4164572]",53.4164572,-6.152223299999999
78,370000,"70 Forestwood Avenue, Santry Avenue, Santry, Dublin 9",3,2,89.0,4157.0,Point,"[-6.2548181, 53.3991592]",53.3991592,-6.2548181
79,995000,"66 Offington Lawn, Sutton, Sutton, Dublin 13",4,2,239.0,4163.0,Point,"[-6.095813199999999, 53.3831952]",53.3831952,-6.095813199999999
80,455000,"27 Windmill Avenue, Swords, Co. Dublin",3,2,116.0,3922.0,Point,"[-6.2312809, 53.45974150000001]",53.45974150000001,-6.2312809
81,599000,"10 Huxley Crescent, Cork Street, The Coombe, Dublin 8",4,3,125.0,4792.0,Point,"[-6.288744299999999, 53.3363981]",53.3363981,-6.288744299999999
82,1600000,"37 The Old Golf Links, Malahide, Co. Dublin",5,3,200.0,8000.0,Point,"[-6.1464503, 53.44916079999999]",53.44916079999999,-6.1464503
83,975000,"120 Ard Na Mara, Malahide, Co. Dublin",4,2,153.0,6373.0,Point,"[-6.1729387, 53.4497846]",53.4497846,-6.1729387
84,1400000,"Cranford Hall, Estuary Road, Malahide, Co. Dublin",5,2,299.0,4682.0,Point,"[-6.1822945, 53.4539377]",53.4539377,-6.1822945
85,625000,"27 Grace Park Grove, Grace Park Wood, Drumcondra, Dublin 3",3,3,105.0,5952.0,Point,"[-6.2456146, 53.3689644]",53.3689644,-6.2456146
86,595000,"88 Murphystown Road, Leopardstown, Dublin 18",4,3,108.0,5509.0,Point,"[-6.2104914, 53.26666720000001]",53.26666720000001,-6.2104914
87,300000,"Apartment 88, Burnell Square, Mayne River Avenue, Malahide Road, Northern Cross",2,2,64.0,4688.0,Point,"[-6.1801432, 53.40422100000001]",53.40422100000001,-6.1801432
88,245000,"Apartment 4, Ballymount Square, Ballymount, Dublin 12",1,1,60.0,4083.0,Point,"[-6.3442431, 53.3142639]",53.3142639,-6.3442431
89,245000,"10 The Square, Larch Hill, Dublin 9",2,1,64.0,3828.0,Point,"[-6.2268288, 53.3986145]",53.3986145,-6.2268288
90,485000,"43 Lambay Road, Drumcondra, Drumcondra, Dublin 9",2,1,86.0,5640.0,Point,"[-6.261585699999999, 53.3773511]",53.3773511,-6.261585699999999
91,295000,"43 Prospect Avenue, Glasnevin, Dublin 9",2,1,61.0,4836.0,Point,"[-6.2715272, 53.3672437]",53.3672437,-6.2715272
92,475000,"25 Castleknock Elms, Castleknock, Castleknock, Dublin 15",3,2,100.0,4750.0,Point,"[-6.372775499999999, 53.37714459999999]",53.37714459999999,-6.372775499999999
93,350000,"Apartment 28, Christchurch View, Christchurch, Dublin 8",2,1,56.0,6250.0,Point,"[-6.271094199999999, 53.342423]",53.342423,-6.271094199999999
94,445000,"Apartment 53, Hazelbrook, Goatstown, Dublin 14",2,2,75.0,5933.0,Point,"[-6.2949587, 53.3130886]",53.3130886,-6.2949587
95,200000,"Apartment 20, Block A, Lansdowne Valley Apartments, Drimnagh, Dublin 12",1,1,57.0,3509.0,Point,"[-6.3273385, 53.3246753]",53.3246753,-6.3273385
96,280000,"Apartment 34, Griffith Hall, Glandore Road, Drumcondra, Dublin 3",2,1,65.0,4308.0,Point,"[-6.2369822, 53.3738105]",53.3738105,-6.2369822
97,295000,"6 Kings Hall, 191-193 Phibsboro Road, Dublin 7",2,1,52.0,5673.0,Point,"[-6.2728752, 53.3598184]",53.3598184,-6.2728752
98,525000,"60 Milltown Avenue Mount St Annes Milltown Dublin 6, Milltown, Dublin 6",2,2,85.0,6176.0,Point,"[-6.2506534, 53.31404370000001]",53.31404370000001,-6.2506534
99,695000,"23 Fortfield Road Terenure Dublin 6W, Terenure, Dublin 6",3,2,124.0,5605.0,Point,"[-6.3012584, 53.3113636]",53.3113636,-6.3012584
100,295000,"Apartment 7, Kilross, Rathmines, Dublin 6",1,1,47.0,6277.0,Point,"[-6.2632618, 53.3193306]",53.3193306,-6.2632618
101,595000,"208 Kimmage Road Lower, Kimmage, Dublin 12",4,2,113.0,5265.0,Point,"[-6.2915695, 53.3183928]",53.3183928,-6.2915695
102,525000,"Apartment 50, Orwell Hall, Rathgar, Dublin 6",1,1,64.0,8203.0,Point,"[-6.2631149, 53.3086206]",53.3086206,-6.2631149
103,435000,"46 Cremorne, Terenure, Dublin 6",2,1,73.0,5959.0,Point,"[-6.278283699999999, 53.3099542]",53.3099542,-6.278283699999999
104,495000,"30 Idrone Park, Knocklyon, Dublin 16",2,1,102.0,4853.0,Point,"[-6.3163005, 53.2851006]",53.2851006,-6.3163005
105,495000,"129 Nutgrove Avenue, Rathfarnham, Dublin 14",3,1,70.0,7071.0,Point,"[-6.2712081, 53.2924464]",53.2924464,-6.2712081
106,595000,"50 Prospect View, Prospect Manor, D16P9W7, Dublin 16",4,2,115.0,5174.0,Point,"[-6.302976699999999, 53.27405510000001]",53.27405510000001,-6.302976699999999
107,325000,"105 The Beech, Grange Hall, Rathfarnham, Dublin 16",2,2,76.0,4276.0,Point,"[-6.254365399999999, 53.2711438]",53.2711438,-6.254365399999999
108,550000,"22 Llewellyn Court, Rathfarnham, Dublin 16",3,1,80.0,6875.0,Point,"[-6.264664499999999, 53.2821209]",53.2821209,-6.264664499999999
109,595000,"106 Templeville Road, Templeogue, Dublin 6W",4,1,149.0,3993.0,Point,"[-6.3099343, 53.3026761]",53.3026761,-6.3099343
110,675000,"The Meadow, 157a Whitehall Road West, Perrystown, Dublin 12",3,3,124.0,5444.0,Point,"[-6.316833099999999, 53.3157005]",53.3157005,-6.316833099999999
111,1100000,"The Oak, 106a Templeville Road, Templeogue, Dublin 6W",4,3,241.0,4564.0,Point,"[-6.3054432, 53.3015658]",53.3015658,-6.3054432
112,325000,"244 Keeper Road, Drimnagh, Dublin 12",2,1,70.0,4643.0,Point,"[-6.299204599999999, 53.3306239]",53.3306239,-6.299204599999999
113,525000,"14 St. Mary's Avenue, Rathfarnham, Dublin 14",2,1,93.0,5645.0,Point,"[-6.285708899999999, 53.2969926]",53.2969926,-6.285708899999999
114,695000,"95 Barton Drive, Rathfarnham, Dublin 14",4,3,126.0,5516.0,Point,"[-6.2774136, 53.2879544]",53.2879544,-6.2774136
115,1100000,"3 Old Orchard, Butterfield Avenue, Dublin 14",4,2,190.0,5789.0,Point,"[-6.2897924, 53.2969679]",53.2969679,-6.2897924
116,595000,"19 Prospect Avenue, Prospect Manor, Rathfarnham, Dublin 16",3,3,142.0,4190.0,Point,"[-6.3003865, 53.2766031]",53.2766031,-6.3003865
117,395000,"17 Whitechurch Place, Rathfarnham, Dublin 16",3,3,87.0,4540.0,Point,"[-6.2891667, 53.2741915]",53.2741915,-6.2891667
118,750000,"31 Orchardstown Avenue, Rathfarnham, Dublin 14",4,2,158.0,4747.0,Point,"[-6.3002896, 53.2909444]",53.2909444,-6.3002896
119,445000,"32 Nutgrove Avenue, Rathfarnham, Dublin 14",3,1,83.0,5361.0,Point,"[-6.278401199999999, 53.2940988]",53.2940988,-6.278401199999999
120,249950,"11 Sundale Lawn, Tallaght, Dublin 24",3,1,82.0,3048.0,Point,"[-6.4115851, 53.28411389999999]",53.28411389999999,-6.4115851
121,275000,"13 Alderwood Avenue, Springfield, D24W65N, Dublin 24",3,1,80.0,3438.0,Point,"[-6.380949900000001, 53.2848917]",53.2848917,-6.380949900000001
122,450000,"81 Carrigwood, Firhouse, Dublin 24",3,1,100.0,4500.0,Point,"[-6.3351374, 53.2798057]",53.2798057,-6.3351374
123,249000,"108 Buttercup Park, Darndale, Dublin 17",3,1,80.0,3112.0,Point,"[-6.1872086, 53.3989838]",53.3989838,-6.1872086
124,495000,"13 Shackleton Crescent, Lucan, Co. Dublin",4,3,172.0,2878.0,Point,"[-6.469678000000001, 53.347631]",53.347631,-6.469678000000001
125,1065000,"9 Old Estuary Mill, Malahide, Co. Dublin",5,4,265.0,4019.0,Point,"[-6.185096, 53.4502566]",53.4502566,-6.185096
126,300000,"59 Gleann Na Ri, Cherrywood, Cabinteely, Dublin 18",2,1,60.0,5000.0,Point,"[-6.142820899999999, 53.2460142]",53.2460142,-6.142820899999999
127,380000,"10 Oldbridge Green, Lucan, Co. Dublin",3,3,102.0,3725.0,Point,"[-6.4349586, 53.3392188]",53.3392188,-6.4349586
128,595000,"62 Belgrove Lawn, Chapelizod, Dublin 20",4,2,135.0,4407.0,Point,"[-6.352247600000001, 53.3515831]",53.3515831,-6.352247600000001
129,550000,"Barr Na Coille, Barr Na Coille, 36E Chapelizod Hill Road, Chapelizod, Dublin 20",4,3,173.0,3179.0,Point,"[-6.3475826, 53.3458955]",53.3458955,-6.3475826
130,260000,"83 The Steeples, Chapelizod, Dublin 20",2,1,57.0,4561.0,Point,"[-6.3388751, 53.3432961]",53.3432961,-6.3388751
131,525000,"2 Chanel Road, Artane, Coolock, Dublin 5",4,3,155.0,3387.0,Point,"[-6.2027584, 53.3865047]",53.3865047,-6.2027584
132,545000,"58 Laurel Park, Clondalkin, Dublin 22",4,2,214.0,2547.0,Point,"[-6.3916334, 53.32044699999999]",53.32044699999999,-6.3916334
133,465000,"2 Kiltipper Drive, Aylesbury, Tallaght, Dublin 24",3,1,108.0,4306.0,Point,"[-6.3606738, 53.2747787]",53.2747787,-6.3606738
134,545000,"22 Brownsbarn Wood, Kingswood, Tallaght, Dublin 24",4,4,185.0,2946.0,Point,"[-6.421700899999999, 53.2991342]",53.2991342,-6.421700899999999
135,450000,"146 Broadmeadows, Swords, Co. Dublin",5,2,126.0,3571.0,Point,"[-6.2283561, 53.4646421]",53.4646421,-6.2283561
136,495000,"274A Glasnevin Avenue, Glasnevin, Dublin 11",4,3,111.0,4459.0,Point,"[-6.266159399999999, 53.3892009]",53.3892009,-6.266159399999999
137,495000,"46 Knockabawn, Rush, Co. Dublin",4,2,161.0,3075.0,Point,"[-6.0801324, 53.5213277]",53.5213277,-6.0801324
138,225000,"31 Marlfield Place, Kiltipper, Dublin 24",2,1,55.0,4091.0,Point,"[-6.3702187, 53.2713927]",53.2713927,-6.3702187
139,295000,"38 Morrow House, Longfield Road, The Coast, Baldoyle, Dublin 13",2,2,70.0,4214.0,Point,"[-6.147302900000001, 53.3995805]",53.3995805,-6.147302900000001
140,475000,"3 Taobh Na Coille, Old Knocklyon Road, Knocklyon, Dublin 16",3,3,88.0,5398.0,Point,"[-6.3291504, 53.2855693]",53.2855693,-6.3291504
141,299000,"14 St Brendan's Park, Coolock, Dublin 5",3,1,96.0,3115.0,Point,"[-6.1947361, 53.38624309999999]",53.38624309999999,-6.1947361
142,375000,"21 Glenarm Square, Drumcondra, Dublin 9",2,1,70.0,5357.0,Point,"[-6.2577187, 53.3654508]",53.3654508,-6.2577187
143,450000,"12 Belltree Walk, Belltree, Clongriffin, Dublin 13",3,3,130.0,3462.0,Point,"[-6.1560997, 53.4059888]",53.4059888,-6.1560997
144,475000,"19 Park Street, Clongriffin, Dublin 13",3,3,117.0,4060.0,Point,"[-6.1518776, 53.4019732]",53.4019732,-6.1518776
145,325000,"12 Broomfield Hall, Broomfield Court, Shankill, Dublin 18",2,2,82.0,3963.0,Point,"[-6.1237461, 53.2400781]",53.2400781,-6.1237461
146,595000,"19 Ardeevin Drive, Lucan, Co. Dublin",4,2,147.0,4048.0,Point,"[-6.454915499999999, 53.3548473]",53.3548473,-6.454915499999999
147,495000,"13 Balnagowan, Palmerston Park, Rathmines, Dublin 6",2,2,74.0,6689.0,Point,"[-6.2562261, 53.3125069]",53.3125069,-6.2562261
148,375000,"224 Olcovar, Shankill, Dublin 18",2,2,72.0,5208.0,Point,"[-6.1252249, 53.2268475]",53.2268475,-6.1252249
149,975000,"Altis, Ballinclea Road, Killiney, Co. Dublin",5,2,177.0,5508.0,Point,"[-6.1330199, 53.26626779999999]",53.26626779999999,-6.1330199
150,395000,"19 Canon Hall, Church Street East, East Wall, Dublin 3",2,2,62.0,6371.0,Point,"[-6.235523199999999, 53.3506128]",53.3506128,-6.235523199999999
151,330000,"85 Kilworth Road, Drimnagh, Dublin 12",3,1,106.0,3113.0,Point,"[-6.325317099999999, 53.33116769999999]",53.33116769999999,-6.325317099999999
152,425000,"34 Elmcastle Walk. D24 YW13, Kilnamanagh|Dublin 24, Kilnamanagh, Dublin 24",3,2,133.0,3195.0,Point,"[-6.353617, 53.3020575]",53.3020575,-6.353617
153,249000,"63 Blackditch Road, Ballyfermot, Dublin 10",2,1,86.0,2895.0,Point,"[-6.365283000000001, 53.34201479999999]",53.34201479999999,-6.365283000000001
154,295000,"4 Slievemore Road, Drimnagh, Dublin 12",2,1,86.0,3430.0,Point,"[-6.3169775, 53.3268302]",53.3268302,-6.3169775
155,345000,"27 Woodford Downs, Clondalkin, Dublin 22",4,2,126.0,2738.0,Point,"[-6.378989600000001, 53.324875]",53.324875,-6.378989600000001
156,199500,"Apt 1 Block A The Steeples, St Laurence€TM Road, Chapelizod, Dublin 20",1,1,40.0,4988.0,Point,"[-6.338743, 53.3430685]",53.3430685,-6.338743
157,379000,"14 Thornleigh Square, Swords, Co. Dublin",5,4,157.0,2414.0,Point,"[-6.2334733, 53.473282]",53.473282,-6.2334733
158,395000,"26 Beneavin Park, Glasnevin, D11N5H0, Dublin 11",3,1,89.0,4438.0,Point,"[-6.2824981, 53.38994109999999]",53.38994109999999,-6.2824981
159,245000,"239 Premier Square, Finglas, D11XN26, Dublin 11",2,2,59.0,4153.0,Point,"[-6.289761899999999, 53.3817894]",53.3817894,-6.289761899999999
160,650000,"4 Kelston Avenue Foxrock Dublin 18, Foxrock, Dublin 18",3,3,113.0,5752.0,Point,"[-6.1855007, 53.2769245]",53.2769245,-6.1855007
161,350000,"Apartment 26, Fortwilliam, Blackrock, Co. Dublin",2,1,82.0,4268.0,Point,"[-6.2032557, 53.29651459999999]",53.29651459999999,-6.2032557
162,695000,"5 Shenick Drive, Skerries, Co. Dublin",4,2,129.0,5388.0,Point,"[-6.1072985, 53.57142229999999]",53.57142229999999,-6.1072985
162,695000,"5 Shenick Drive, Skerries, Co. Dublin",4,2,129.0,5388.0,Point,"[-6.1072985, 53.57142229999999]",53.57142229999999,-6.1072985
162,695000,"5 Shenick Drive, Skerries, Co. Dublin",4,2,129.0,5388.0,Point,"[-6.1072985, 53.57142229999999]",53.57142229999999,-6.1072985
164,695000,"5 Shenick Drive, Skerries, Co. Dublin",4,2,129.0,5388.0,Point,"[-6.1072985, 53.57142229999999]",53.57142229999999,-6.1072985
164,695000,"5 Shenick Drive, Skerries, Co. Dublin",4,2,129.0,5388.0,Point,"[-6.1072985, 53.57142229999999]",53.57142229999999,-6.1072985
164,695000,"5 Shenick Drive, Skerries, Co. Dublin",4,2,129.0,5388.0,Point,"[-6.1072985, 53.57142229999999]",53.57142229999999,-6.1072985
1700,675000,"5 Shenick Drive, Skerries, Co. Dublin",4,2,129.0,5233.0,Point,"[-6.1072985, 53.57142229999999]",53.57142229999999,-6.1072985
1700,675000,"5 Shenick Drive, Skerries, Co. Dublin",4,2,129.0,5233.0,Point,"[-6.1072985, 53.57142229999999]",53.57142229999999,-6.1072985
1700,675000,"5 Shenick Drive, Skerries, Co. Dublin",4,2,129.0,5233.0,Point,"[-6.1072985, 53.57142229999999]",53.57142229999999,-6.1072985
163,450000,"34 River Valley Grove, Swords, Co. Dublin",3,3,122.0,3689.0,Point,"[-6.2334412, 53.4499125]",53.4499125,-6.2334412
163,450000,"34 River Valley Grove, Swords, Co. Dublin",3,3,122.0,3689.0,Point,"[-6.2334412, 53.4499125]",53.4499125,-6.2334412
1913,430000,"34 River Valley Grove, Swords, Co. Dublin",3,3,122.0,3525.0,Point,"[-6.2334412, 53.4499125]",53.4499125,-6.2334412
1913,430000,"34 River Valley Grove, Swords, Co. Dublin",3,3,122.0,3525.0,Point,"[-6.2334412, 53.4499125]",53.4499125,-6.2334412
165,350000,"Apt 26 Fortwilliam, Mount Merrion Ave, Blackrock, Co. Dublin",2,1,82.0,4268.0,Point,"[-6.2032557, 53.29651459999999]",53.29651459999999,-6.2032557
166,375000,"89 St Peters Road, Walkinstown, Dublin 12",3,1,102.0,3676.0,Point,"[-6.329632399999999, 53.3142485]",53.3142485,-6.329632399999999
167,260000,"38 Rosedale Crescent, Clonee, Dublin 15",2,1,74.0,3514.0,Point,"[-6.4338459, 53.3990672]",53.3990672,-6.4338459
168,345000,"11 Stralem Grove, Ongar, Dublin 15",4,3,125.0,2760.0,Point,"[-6.432352799999999, 53.3933817]",53.3933817,-6.432352799999999
169,460000,"58 Castleknock Elms, Laurel Lodge, Castleknock, Dublin 15",3,1,93.0,4946.0,Point,"[-6.372474, 53.3768885]",53.3768885,-6.372474
170,365000,"16 Aspen Park, Aspen Park, Kinsealy Court, Swords, Co. Dublin",3,1,84.0,4345.0,Point,"[-6.1944384, 53.4467608]",53.4467608,-6.1944384
171,255000,"24 Green Briar, Verdemont, Blanchardstown, Dublin 15",2,2,63.0,4048.0,Point,"[-6.3936727, 53.3889436]",53.3889436,-6.3936727
172,299000,"127 Lymewood Mews, Northwood, Santry, Dublin 9",2,2,70.0,4271.0,Point,"[-6.259557, 53.40365449999999]",53.40365449999999,-6.259557
173,375000,"13 Dun Emer Road, Lusk, Co. Dublin",4,3,136.0,2757.0,Point,"[-6.1735809, 53.5242683]",53.5242683,-6.1735809
174,220000,"72 Seagrave Drive, Finglas, D11AK07, Dublin 11",2,2,54.0,4074.0,Point,"[-6.2936122, 53.4057363]",53.4057363,-6.2936122
175,225000,"Apt 7, Mayeston Court, Finglas, D11YY60, Dublin 11",2,2,71.0,3169.0,Point,"[-6.286375, 53.4064636]",53.4064636,-6.286375
176,269000,"159 Cruise Park Drive, Tyrrelstown, D15HY64, Dublin 15",3,3,105.0,2562.0,Point,"[-6.3969951, 53.42039219999999]",53.42039219999999,-6.3969951
177,275000,"20 Castle Elms, Coolock, D17FT80, Dublin 17",3,2,75.0,3667.0,Point,"[-6.1977045, 53.3946773]",53.3946773,-6.1977045
178,299000,"96 North Road, Finglas, D11H5R2, Dublin 11",2,1,50.0,5980.0,Point,"[-6.302424800000001, 53.39386820000001]",53.39386820000001,-6.302424800000001
179,345000,"447 Mourne Road, Drimnagh, Dublin 12",2,1,71.0,4859.0,Point,"[-6.3028865, 53.333498]",53.333498,-6.3028865
180,369000,"50 Monastery Gate Close, Clondalkin, D22 PX70, Dublin 22",4,3,102.0,3618.0,Point,"[-6.372745600000001, 53.3192431]",53.3192431,-6.372745600000001
181,300000,"60 Clonshaugh Avenue, Clonshaugh, D17 Y443, Dublin 17",3,1,90.0,3333.0,Point,"[-6.21071, 53.4031661]",53.4031661,-6.21071
182,375000,"Apartment 207, Longboat Quay South Apartments, Grand Canal Dock, Dublin 2",1,1,50.0,7500.0,Point,"[-6.236741899999999, 53.3448314]",53.3448314,-6.236741899999999
183,325000,"110 Greencastle Road, Coolock, Dublin 17",3,1,101.0,3218.0,Point,"[-6.2015302, 53.3962161]",53.3962161,-6.2015302
184,325000,"40 Clanranald Road, Donnycarney, Dublin 5",2,1,60.0,5417.0,Point,"[-6.2141869, 53.3747948]",53.3747948,-6.2141869
185,525000,"134 Brian Road, Marino, Dublin 3",3,1,111.0,4730.0,Point,"[-6.2388007, 53.36563959999999]",53.36563959999999,-6.2388007
186,340000,"92 Clonliffe Avenue, Ballybough, Dublin 3",2,1,66.0,5152.0,Point,"[-6.2457055, 53.3607546]",53.3607546,-6.2457055
187,875000,"40 Corr Castle, Howth Road, Howth, D13PY28, Dublin 13",4,2,175.0,5000.0,Point,"[-6.0910325, 53.3909504]",53.3909504,-6.0910325
188,695000,"53 Cedarmount Road, Mount Merrion, Co. Dublin",3,1,116.0,5991.0,Point,"[-6.2121873, 53.2933549]",53.2933549,-6.2121873
189,750000,"9 Orwell Park Dale, Templeogue, Templeogue, Dublin 6W",5,4,215.0,3488.0,Point,"[-6.3210343, 53.2986316]",53.2986316,-6.3210343
190,340000,"Apartment 38, Block F, Milner's Square, Shanowen Road, Santry, Dublin 9",2,2,83.0,4096.0,Point,"[-6.2523461, 53.3885854]",53.3885854,-6.2523461
191,425000,"Coill Ghiéºise, 17 Brookwood Heights, Artane, Dublin 5",3,1,126.0,3373.0,Point,"[-6.1958604, 53.38101649999999]",53.38101649999999,-6.1958604
192,255000,"Apartment 24, Green Briar, Dublin 15",2,2,63.0,4048.0,Point,"[-6.3936727, 53.3889436]",53.3889436,-6.3936727
193,325000,"36 St Johns Close, Clondalkin, Dublin 22",2,2,70.0,4643.0,Point,"[-6.405855499999999, 53.3177836]",53.3177836,-6.405855499999999
194,425000,"164 Beauvale Park, Artane, Dublin 5",3,2,93.0,4570.0,Point,"[-6.2205495, 53.3857477]",53.3857477,-6.2205495
195,325000,"74 West Courtyard, Tullyvale, Cabinteely, Dublin 18",2,2,70.0,4643.0,Point,"[-6.1470416, 53.2485187]",53.2485187,-6.1470416
196,419000,"13 Riversdale Park, Palmerstown, Dublin 20",3,2,91.0,4604.0,Point,"[-6.3766801, 53.3581183]",53.3581183,-6.3766801
197,335000,"39 Boroimhe Cedars, Swords, Co. Dublin",3,2,107.0,3131.0,Point,"[-6.2336841, 53.44493869999999]",53.44493869999999,-6.2336841
198,575000,"1 Sefton Green, Rochestown Avenue, Dun Laoghaire, Co. Dublin",3,2,95.0,6053.0,Point,"[-6.150059, 53.2759696]",53.2759696,-6.150059
199,340000,"18 Boulevard, Bellgree, Tyrrelstown, Dublin 15",4,3,140.0,2429.0,Point,"[-6.3874179, 53.4221432]",53.4221432,-6.3874179
200,440000,"84 Grange Park View, Raheny, Dublin 5",3,1,106.0,4151.0,Point,"[-6.1628455, 53.3878253]",53.3878253,-6.1628455
201,675000,"65 Cabinteely Green, Cabinteely, Dublin 18",4,3,123.0,5488.0,Point,"[-6.1492599, 53.2655708]",53.2655708,-6.1492599
202,325000,"56 Ivy Court, Beaumont, Dublin 9",2,2,79.0,4114.0,Point,"[-6.228753999999999, 53.3926597]",53.3926597,-6.228753999999999
203,229000,"29 Broadfield Close, Rathcoole, Co. Dublin",2,1,78.0,2936.0,Point,"[-6.483600399999999, 53.2796552]",53.2796552,-6.483600399999999
204,199950,"Apt 6, Wikeford Hall, Thornleigh Road, Swords, Co. Dublin",2,2,61.0,3278.0,Point,"[-6.232476699999999, 53.4741488]",53.4741488,-6.232476699999999
205,545000,"3 Haroldville Avenue, Rialto, Dublin 8",3,2,132.0,4129.0,Point,"[-6.292755499999999, 53.3351661]",53.3351661,-6.292755499999999
206,495000,"1 Fancourt Road, Balbriggan, Co. Dublin",5,2,137.0,3613.0,Point,"[-6.1739749, 53.6071512]",53.6071512,-6.1739749
207,495000,"26 Harmony Avenue, Donnybrook, Donnybrook, Dublin 4",2,1,64.0,7734.0,Point,"[-6.234449100000001, 53.3185498]",53.3185498,-6.234449100000001
208,595000,"Ketu, Breffni Gate, Ketu, Breffni Gate, 25 Church Road, Dalkey, Co. Dublin",2,2,103.0,5777.0,Point,"[-6.1048645, 53.2807147]",53.2807147,-6.1048645
209,845000,"153A Ballinclea Heights, Killiney, Co. Dublin",4,2,165.0,5121.0,Point,"[-6.118036900000001, 53.26954139999999]",53.26954139999999,-6.118036900000001
210,270000,"Apartment 9, Scariff House, Waterville Terrace, Blanchardstown, Dublin 15",2,2,65.0,4154.0,Point,"[-6.374521499999999, 53.3924134]",53.3924134,-6.374521499999999
211,495000,"27 Dodder View Cottages, Ballsbridge, Ballsbridge, Dublin 4",2,2,62.0,7984.0,Point,"[-6.2301483, 53.330031]",53.330031,-6.2301483
212,310000,"44 Tenterfields, Brown Street South, South, Dublin 8",2,1,59.0,5254.0,Point,"[-6.282021299999999, 53.3360711]",53.3360711,-6.282021299999999
213,365000,"182 Mourne Road, Drimnagh, Dublin 12",3,2,79.0,4620.0,Point,"[-6.3218459, 53.3304677]",53.3304677,-6.3218459
214,575000,"3 Arranmore Avenue, Phibsborough, Dublin 7",2,1,93.0,6183.0,Point,"[-6.2701571, 53.3610628]",53.3610628,-6.2701571
215,315000,"Apt. 95 Belfield Park Blackrock, Blackrock, Co. Dublin",1,1,42.0,7500.0,Point,"[-6.206572599999999, 53.3033577]",53.3033577,-6.206572599999999
216,695000,"7 Talbot Road, Malahide, Co. Dublin",4,4,144.0,4826.0,Point,"[-6.182319499999999, 53.4486406]",53.4486406,-6.182319499999999
217,340000,"110 Comeragh Road, Drimnagh, Dublin 12",3,2,81.0,4198.0,Point,"[-6.325245499999999, 53.3275482]",53.3275482,-6.325245499999999
218,199950,"Apartment 2, Wikeford Hall, Thornleigh Road, Swords, Co. Dublin",2,2,61.0,3278.0,Point,"[-6.232476699999999, 53.4741488]",53.4741488,-6.232476699999999
219,369000,"9 Heather Grove, Palmerstown, Dublin 20",3,1,83.0,4446.0,Point,"[-6.3826838, 53.3526097]",53.3526097,-6.3826838
220,200000,"30 Hillview, Mount Talbot, Clondalkin, Dublin 22",1,1,49.0,4082.0,Point,"[-6.371716300000001, 53.3187546]",53.3187546,-6.371716300000001
221,295000,"37 Alderwood Park, Tallaght, Dublin 24",3,1,95.0,3105.0,Point,"[-6.380474599999999, 53.2856555]",53.2856555,-6.380474599999999
222,325000,"30 Cairnwood Court, Belgard, Tallaght, Dublin 24",3,1,80.0,4062.0,Point,"[-6.387816, 53.29383809999999]",53.29383809999999,-6.387816
223,475000,"39 Rathmill Green, Rathcoole, Co. Dublin",4,4,181.0,2624.0,Point,"[-6.4859659, 53.2756249]",53.2756249,-6.4859659
224,300000,"18 Beechfield Haven, Beechfield Manor, Shankill, Dublin 18",2,1,68.0,4412.0,Point,"[-6.1213598, 53.2345287]",53.2345287,-6.1213598
225,475000,"Apartment 5, Bissett's Loft, Malahide, Co. Dublin",2,2,72.0,6597.0,Point,"[-6.1554981, 53.45220310000001]",53.45220310000001,-6.1554981
226,320000,"Apartment 12 Grande Central, Rockbrook, Sandyford, Dublin 18",1,1,58.0,5517.0,Point,"[-6.2163425, 53.27896980000001]",53.27896980000001,-6.2163425
227,340000,"3 Bealing Grove, Tyrellstown, Tyrrelstown, Dublin 15",3,3,95.0,3579.0,Point,"[-6.3894823, 53.4182335]",53.4182335,-6.3894823
228,695000,"14 Vale View Lawn The Park Cabinteely Dublin 18, Cabinteely, Dublin 18",4,2,135.0,5148.0,Point,"[-6.164507800000001, 53.2645917]",53.2645917,-6.164507800000001
229,370000,"19 Waterside Way, Swords Road, Malahide, Co. Dublin",3,3,100.0,3700.0,Point,"[-6.197573999999999, 53.451643]",53.451643,-6.197573999999999
230,365000,"62 Waterside Court, Swords Road, Malahide, Co. Dublin",3,2,107.0,3411.0,Point,"[-6.1994998, 53.4508284]",53.4508284,-6.1994998
231,425000,"35 Grove Park Road, Glasnevin, D11 HY86, Dublin 11",3,1,85.0,5000.0,Point,"[-6.2864946, 53.3913479]",53.3913479,-6.2864946
232,490000,"12A Pinewood Crescent, Glasnevin, D11R597, Dublin 11",3,3,135.0,3630.0,Point,"[-6.2732036, 53.393686]",53.393686,-6.2732036
233,280000,"4 Roby Hall Crofton Avenue Dun Laoghaire, Dun Laoghaire, Co. Dublin",1,1,41.0,6829.0,Point,"[-6.137940899999999, 53.2951688]",53.2951688,-6.137940899999999
234,365000,"44 Cameron Square, Kilmainham, Kilmainham, Dublin 8",3,1,75.0,4867.0,Point,"[-6.301081700000001, 53.34029710000001]",53.34029710000001,-6.301081700000001
235,375000,"23 Cameron Square, Kilmainham, Kilmainham, Dublin 8",2,1,72.0,5208.0,Point,"[-6.300519, 53.3405109]",53.3405109,-6.300519
236,749950,"3 Tudor Hall, Pottery Road, Glenageary, Dun Laoghaire, Co. Dublin",4,3,158.0,4747.0,Point,"[-6.1533541, 53.2734045]",53.2734045,-6.1533541
237,250000,"18 St. Josephs Place, Phibsborough, D07P62H, Dublin 7",1,1,40.0,6250.0,Point,"[-6.2657396, 53.3571089]",53.3571089,-6.2657396
238,560000,"6 Beresford Crescent, Donabate, Co. Dublin",4,3,137.0,4088.0,Point,"[-6.1611682, 53.492284]",53.492284,-6.1611682
239,525000,"17 Lomond Avenue, Fairview, Fairview, Dublin 3",3,1,104.0,5048.0,Point,"[-6.2415099, 53.3662337]",53.3662337,-6.2415099
240,725000,"Hill Grove, 189 Swords Road, Swords, Co. Dublin",4,3,175.0,4143.0,Point,"[-6.2436424, 53.3861802]",53.3861802,-6.2436424
241,470000,"14 Castle Oaks, Dublin Road, Malahide, Co. Dublin",2,2,70.0,6714.0,Point,"[-6.1733391, 53.4457448]",53.4457448,-6.1733391
242,675000,"86 Ardmore Park, Kill Avenue, Dun Laoghaire, Co. Dublin",3,1,85.0,7941.0,Point,"[-6.1483599, 53.2808873]",53.2808873,-6.1483599
243,320000,"73 Cill Cais, Old Bawn Road, Tallaght, Dublin 24",3,1,90.0,3556.0,Point,"[-6.3720637, 53.2790543]",53.2790543,-6.3720637
244,295000,"73A Cill Cais, Old Bawn Road, Tallaght, Dublin 24",2,1,70.0,4214.0,Point,"[-6.3720637, 53.2790543]",53.2790543,-6.3720637
245,325000,"21 Hazelwood Crescent, Clondalkin, Dublin 22",4,1,100.0,3250.0,Point,"[-6.4037173, 53.3118217]",53.3118217,-6.4037173
246,295000,"Apt 25, Woodbrook Hall, Porterstown, D15N262, Blanchardstown, Dublin 15",2,2,80.0,3688.0,Point,"[-6.4011818, 53.3770213]",53.3770213,-6.4011818
247,325000,"10 Mount Eustace Rise, Tyrrelstown, D15F3C6, Dublin 15",3,3,95.0,3421.0,Point,"[-6.3887272, 53.420551]",53.420551,-6.3887272
248,560000,"24 Grange Terrace, Deansgrange Road, Deans Grange, Co. Dublin",2,1,82.0,6829.0,Point,"[-6.1647015, 53.2807213]",53.2807213,-6.1647015
249,365000,"67 Oldtown Avenue, Santry, Santry, Dublin 9",4,1,95.0,3842.0,Point,"[-6.258360499999999, 53.393463]",53.393463,-6.258360499999999
250,575000,"88 Rosemount Estate, Dundrum, Dundrum, Dublin 14",3,1,92.0,6250.0,Point,"[-6.2414643, 53.2945192]",53.2945192,-6.2414643
251,325000,"Apartment 4, 382 North Circular Road, Dublin 7",1,2,87.0,3736.0,Point,"[-6.2708127, 53.3605141]",53.3605141,-6.2708127
252,475000,"50 Cadogan Road, Fairview, Dublin 3",3,1,90.0,5278.0,Point,"[-6.2403844, 53.362044]",53.362044,-6.2403844
253,570000,"San Martin, 14 Brookwood Glen, Artane, Dublin 5",5,1,122.0,4672.0,Point,"[-6.1933712, 53.3764541]",53.3764541,-6.1933712
254,525000,"15 Lissadel Crescent, Malahide, Co. Dublin",3,3,100.0,5250.0,Point,"[-6.185455200000001, 53.4523325]",53.4523325,-6.185455200000001
255,320000,"105 Walkinstown Drive, Walkinstown, Dublin 12",2,1,72.0,4444.0,Point,"[-6.338101399999999, 53.32155780000001]",53.32155780000001,-6.338101399999999
256,440000,"3 Beverton Avenue, Donabate, Co. Dublin",3,3,112.0,3929.0,Point,"[-6.152440299999999, 53.4892252]",53.4892252,-6.152440299999999
257,259000,"48 Cherry Orchard Avenue, Cherry Orchard, Dublin 10",3,1,85.0,3047.0,Point,"[-6.363768299999999, 53.3356861]",53.3356861,-6.363768299999999
258,475000,"20b Park Road, Glenageary Heights, Glenageary, Co. Dublin",3,1,82.0,5793.0,Point,"[-6.1354644, 53.2751526]",53.2751526,-6.1354644
259,825000,"1 Kingsland Park Church, Portobello, Dublin 8",2,3,94.0,8777.0,Point,"[-6.2692777, 53.3319967]",53.3319967,-6.2692777
260,350000,"19 Fancourt Road, Balbriggan, Co. Dublin",4,2,104.0,3365.0,Point,"[-6.1725273, 53.6073677]",53.6073677,-6.1725273
261,475000,"1 Sally Grove, Ballycullen, Dublin 24",3,3,97.0,4897.0,Point,"[-6.3334189, 53.2729563]",53.2729563,-6.3334189
262,335000,"1 Riverside Apartments, Milltown Road, Milltown, Dublin 6",1,1,43.0,7791.0,Point,"[-6.248602699999999, 53.3113459]",53.3113459,-6.248602699999999
263,450000,"Apartment 6, 7 Fitzwilliam Place, Dublin 2",1,1,73.0,6164.0,Point,"[-6.2516086, 53.3339692]",53.3339692,-6.2516086
264,585000,"26 Milltown Hall, Mount St Annes, Milltown, Dublin 6",2,2,82.0,7134.0,Point,"[-6.2500035, 53.3138087]",53.3138087,-6.2500035
265,1550000,"2 Alexandra Villas Rockfort Avenue Dalkey, Dalkey, Co. Dublin",4,2,214.0,7243.0,Point,"[-6.0995009, 53.2764849]",53.2764849,-6.0995009
266,295000,"Apartment 41, Compass Court North, Ashtown, Dublin 15",2,2,80.0,3688.0,Point,"[-6.317146999999999, 53.3762791]",53.3762791,-6.317146999999999
267,315000,"Apartment 34, The Richmond, Smithfield, Dublin 1",2,1,55.0,5727.0,Point,"[-6.2777243, 53.3511412]",53.3511412,-6.2777243
268,445000,"17 Violet Hill Park, Glasnevin, Glasnevin, Dublin 11",3,1,90.0,4944.0,Point,"[-6.2834068, 53.3762398]",53.3762398,-6.2834068
269,450000,"94 Foxwood, Swords, Co. Dublin",3,2,125.0,3600.0,Point,"[-6.2098578, 53.4525826]",53.4525826,-6.2098578
270,295000,"356 Ballyfermot Road, Ballyfermot, Dublin 10",3,1,101.0,2921.0,Point,"[-6.357910599999999, 53.3428575]",53.3428575,-6.357910599999999
271,1800000,"250 Merrion Road, Dublin 4",4,3,240.0,7500.0,Point,"[-6.2071155, 53.31715999999999]",53.31715999999999,-6.2071155
272,375000,"Apartment 111, Rockview, Blackglen Road, Sandyford, Dublin 18",3,2,105.0,3571.0,Point,"[-6.2296118, 53.2652091]",53.2652091,-6.2296118
273,1800000,"252 Merrion Road, Dublin 4",4,3,240.0,7500.0,Point,"[-6.2069937, 53.317124]",53.317124,-6.2069937
274,775000,"139 Drumnigh Wood, Portmarnock, Co. Dublin",4,4,220.0,3523.0,Point,"[-6.1517179, 53.4166527]",53.4166527,-6.1517179
275,395000,"Apartment 57, Chapelgate, Saint Alphonsus' Road Upper, Drumcondra, Dublin 9",2,2,85.0,4647.0,Point,"[-6.2622129, 53.36551619999999]",53.36551619999999,-6.2622129
276,390000,"130 Springdale Road, Raheny, Dublin 5",3,1,96.0,4062.0,Point,"[-6.186722199999999, 53.3858567]",53.3858567,-6.186722199999999
277,575000,"Apartment 15, Blind Quay Apartments, Dublin 8",3,1,111.0,5180.0,Point,"[-6.268495199999999, 53.3449854]",53.3449854,-6.268495199999999
278,450000,"26 Shanglas Road, Santry, Santry, Dublin 9",3,1,120.0,3750.0,Point,"[-6.239371299999999, 53.3887489]",53.3887489,-6.239371299999999
279,275000,"19 Carlton Court, St. Lawrence Road, Clontarf, Dublin 3",1,1,37.0,7432.0,Point,"[-6.215789399999999, 53.3623588]",53.3623588,-6.215789399999999
280,525000,"34 Grange Manor Close, Rathfarnham, Dublin 16",3,3,122.0,4303.0,Point,"[-6.2736512, 53.2852229]",53.2852229,-6.2736512
281,555000,"33 Parkside Walk, Balgriffin, Dublin 13",3,4,141.0,3936.0,Point,"[-6.166522199999999, 53.4072052]",53.4072052,-6.166522199999999
282,400000,"1 Kinsealy Cottages, Malahide, Co. Dublin",3,1,73.0,5479.0,Point,"[-6.1758815, 53.4250165]",53.4250165,-6.1758815
283,1095000,"Foxrock Park (Tara), Kill Lane, Foxrock, Dublin 18",5,3,277.0,3953.0,Point,"[-6.169352099999999, 53.27601]",53.27601,-6.169352099999999
284,345000,"1 Castlegrange Terrace, Castaheany, Clonee, Dublin 15",4,4,134.0,2575.0,Point,"[-6.430179, 53.39808069999999]",53.39808069999999,-6.430179
285,625000,"33 Luttrellstown Drive, Castleknock, Castleknock, Dublin 15",3,4,151.0,4139.0,Point,"[-6.3969947, 53.3701471]",53.3701471,-6.3969947
286,330000,"Apartment 004 Block B The Hill, Clon Brugh, Aiken's Village, Sandyford, Dublin 18",2,2,83.0,3976.0,Point,"[-6.227437999999999, 53.2643458]",53.2643458,-6.227437999999999
287,364500,"11 Mount Rochford Avenue, Flemington Lane, Balbriggan, Co. Dublin",4,3,124.0,2940.0,Point,"[-6.1989198, 53.61783010000001]",53.61783010000001,-6.1989198
288,595000,"80 BLOCK 5A, The Casino, Malahide, Co. Dublin",2,2,83.0,7169.0,Point,"[-6.1584993, 53.4511061]",53.4511061,-6.1584993
289,265000,"Apt 29, Ladycove, Rush, Co. Dublin",2,2,70.0,3786.0,Point,"[-6.0921156, 53.5315164]",53.5315164,-6.0921156
290,529950,"39 Ash Grove, Kill Avenue, Dun Laoghaire, Co. Dublin",3,1,75.0,7066.0,Point,"[-6.1514452, 53.2821961]",53.2821961,-6.1514452
291,1295000,"5 Burrow Road, Sutton, Dublin 13",4,3,186.0,6962.0,Point,"[-6.1039398, 53.3920949]",53.3920949,-6.1039398
292,495000,"53 Longwood Park, Rathfarnham, Dublin 14",3,1,82.0,6037.0,Point,"[-6.2793481, 53.2904381]",53.2904381,-6.2793481
293,750000,"Astoria, 28 Castleknock Road, Castleknock, Dublin 15",5,2,173.0,4335.0,Point,"[-6.371240200000001, 53.3838512]",53.3838512,-6.371240200000001
294,400000,"8 Spitalfields, Dublin 8",2,2,68.0,5882.0,Point,"[-6.2755649, 53.340425]",53.340425,-6.2755649
295,525000,"3 Park Close, Glenageary Heights, Glenageary, Co. Dublin",3,2,102.0,5147.0,Point,"[-6.1356746, 53.27484459999999]",53.27484459999999,-6.1356746
296,230000,"47 Dublin Street, Balbriggan, Co. Dublin",3,1,131.0,1756.0,Point,"[-6.183936999999999, 53.60637240000001]",53.60637240000001,-6.183936999999999
297,495000,"23 Woodstown Meadow, Knocklyon, Dublin 16",3,3,98.0,5051.0,Point,"[-6.3267009, 53.2728739]",53.2728739,-6.3267009
298,495000,"13 Parklands Drive, Ballycullen, Ballycullen, Dublin 24",4,3,118.0,4195.0,Point,"[-6.3399605, 53.27434179999999]",53.27434179999999,-6.3399605
299,280000,"9 Castlegate Terrace, Lucan, Co. Dublin",2,3,80.0,3500.0,Point,"[-6.4616918, 53.3370875]",53.3370875,-6.4616918
300,475000,"334 Collinswood, Collins Avenue, Beaumont, Dublin 9",3,3,89.0,5337.0,Point,"[-6.234904299999999, 53.381821]",53.381821,-6.234904299999999
301,275000,"5 The Swift, Tassagard Green, Saggart, Co. Dublin",2,2,82.0,3354.0,Point,"[-6.4406691, 53.2813933]",53.2813933,-6.4406691
302,600000,"3 Gallery Quay, Dublin 2",3,2,100.0,6000.0,Point,"[-6.2390153, 53.3429414]",53.3429414,-6.2390153
303,220000,"Apartment 24, The Mill, Dublin 8",2,1,50.0,4400.0,Point,"[-6.2934794, 53.343142]",53.343142,-6.2934794
304,275000,"Apt.15 Howth Junction Court, Kilbarrack, Dublin 13",2,1,69.0,3986.0,Point,"[-6.1574811, 53.390577]",53.390577,-6.1574811
305,320000,"35 Block D, Radcliffe Apartments, Dublin Road, Sutton, Dublin 13",1,1,62.0,5161.0,Point,"[-6.1103064, 53.3895166]",53.3895166,-6.1103064
306,925000,"13 Cornelscourt Hill Road, Foxrock, Dublin 18",3,3,133.0,6955.0,Point,"[-6.1684891, 53.2641504]",53.2641504,-6.1684891
307,349950,"4 Mount Bellew Rise, Lucan, Co. Dublin",3,3,98.0,3571.0,Point,"[-6.4244993, 53.3513762]",53.3513762,-6.4244993
308,500000,"Apartment 42, Forbes Quay Apartments, Grand Canal Dock, Dublin 2",2,2,68.0,7353.0,Point,"[-6.2383735, 53.3455846]",53.3455846,-6.2383735
309,420000,"24 Clanmaurice Road, Donnycarney, Dublin 5",2,2,75.0,5600.0,Point,"[-6.2136079, 53.3753013]",53.3753013,-6.2136079
310,350000,"258 Castleforbes Square, Block E, Docklands, Dublin 1",2,2,66.0,5303.0,Point,"[-6.2316404, 53.3487669]",53.3487669,-6.2316404
311,594950,"56A Ardmore Park, Dun Laoghaire, Co. Dublin",3,2,126.0,4722.0,Point,"[-6.1485343, 53.281212]",53.281212,-6.1485343
312,525000,"93 Prussia Street, Stoneybatter, Dublin 7",3,3,103.0,5097.0,Point,"[-6.285946999999999, 53.35365909999999]",53.35365909999999,-6.285946999999999
313,440000,"12 Saint Malachy's Road, Glasnevin, Glasnevin, Dublin 11",2,1,75.0,5867.0,Point,"[-6.2648822, 53.3715689]",53.3715689,-6.2648822
314,1200000,"12 The Willows Dunstaffnage Hall Stillorgan, Stillorgan, Co. Dublin",3,4,225.0,5333.0,Point,"[-6.1957546, 53.28352289999999]",53.28352289999999,-6.1957546
315,629950,"95 The Clayton, The Gasworks, South Lotts Road, Dublin 4",3,2,105.0,6000.0,Point,"[-6.235107699999999, 53.339063]",53.339063,-6.235107699999999
316,329000,"10 Newcastle Manor Square, Newcastle, Co. Dublin",3,3,112.0,2938.0,Point,"[-6.491815, 53.29765769999999]",53.29765769999999,-6.491815
317,575000,"456 Griffith Avenue, Glasnevin, Dublin 11",3,2,120.0,4792.0,Point,"[-6.2788968, 53.37951959999999]",53.37951959999999,-6.2788968
318,350000,"Apartment 24 Eaglewood, Rochestown Avenue, Dun Laoghaire, Co. Dublin",2,2,74.0,4730.0,Point,"[-6.1423032, 53.27127309999999]",53.27127309999999,-6.1423032
319,675000,"2 Kill Lane, Foxrock, Foxrock, Dublin 18",4,1,120.0,5625.0,Point,"[-6.166003099999999, 53.276905]",53.276905,-6.166003099999999
320,305000,"23 Liberty Corner, Foley Street, Dublin 1",2,2,56.0,5446.0,Point,"[-6.253105700000001, 53.3515418]",53.3515418,-6.253105700000001
321,495000,"28 Loreto Avenue, Rathfarnham, Rathfarnham, Dublin 14",3,3,94.0,5266.0,Point,"[-6.2739083, 53.2920162]",53.2920162,-6.2739083
322,249950,"43 Waterville Row, Waterville, Blanchardstown, Dublin 15",2,2,77.0,3246.0,Point,"[-6.377325099999999, 53.39215369999999]",53.39215369999999,-6.377325099999999
323,270000,"255 Fairbarn House, Bellevue, Islandbridge, Dublin 8",1,1,40.0,6750.0,Point,"[-6.311158499999999, 53.3468881]",53.3468881,-6.311158499999999
324,495000,"79 Larkfield Grove, Harolds Cross, Dublin 6W",3,1,76.0,6513.0,Point,"[-6.2885444, 53.316523]",53.316523,-6.2885444
325,300000,"40 The Rise, Kingswood Heights, Kingswood, D24 VAA4, Dublin 24",2,1,47.0,6383.0,Point,"[-6.3714241, 53.3029778]",53.3029778,-6.3714241
326,289000,"149 Drumfinn Avenue, Ballyfermot, Dublin 10",2,2,92.0,3141.0,Point,"[-6.3680561, 53.34580829999999]",53.34580829999999,-6.3680561
327,275000,"8 Benbulbin Road, Drimnagh, Drimnagh, Dublin 12",2,1,85.0,3235.0,Point,"[-6.3125122, 53.3356807]",53.3356807,-6.3125122
328,460000,"20 Hand Park, Tower Street, Rush, Co. Dublin",4,2,113.0,4071.0,Point,"[-6.0778424, 53.5207695]",53.5207695,-6.0778424
329,490000,"19 Ophaly Court, Dundrum, Dundrum, Dublin 14",3,1,75.0,6533.0,Point,"[-6.245783299999999, 53.2954356]",53.2954356,-6.245783299999999
330,280000,"Apartment 31, Block 2, Dundrum Gate, Dundrum, Dublin 14",1,1,45.0,6222.0,Point,"[-6.2463619, 53.2944209]",53.2944209,-6.2463619
331,325000,"Cladagh, 172 Edgewood Lawns, Blanchardstown, Dublin 15",3,1,82.0,3963.0,Point,"[-6.3811077, 53.39495160000001]",53.39495160000001,-6.3811077
332,270000,"Apartment 6, 55/56 Francis Street, Dublin 8",2,1,60.0,4500.0,Point,"[-6.2739758, 53.34033059999999]",53.34033059999999,-6.2739758
333,325000,"21 Harty Place, Dublin 8",1,1,48.0,6771.0,Point,"[-6.2721507, 53.33512529999999]",53.33512529999999,-6.2721507
334,375000,"2 Mulroy Road, Cabra, Dublin 7",3,2,80.0,4688.0,Point,"[-6.291819599999999, 53.3675756]",53.3675756,-6.291819599999999
335,380000,"12 Lyons Street, Newcastle, Co. Dublin",4,4,163.0,2331.0,Point,"[-6.496093399999999, 53.29567230000001]",53.29567230000001,-6.496093399999999
336,495000,"687 Collins Avenue Extension, Whitehall, Dublin 9",3,2,85.0,5824.0,Point,"[-6.2633887, 53.3886586]",53.3886586,-6.2633887
337,339950,"10 Pinebrook Downs, Clonsilla, Huntstown, Dublin 15",3,1,75.0,4533.0,Point,"[-6.4124531, 53.3973786]",53.3973786,-6.4124531
338,290000,"54 Dolmen Court, Ballymun, Dublin 9",4,2,108.0,2685.0,Point,"[-6.27054, 53.3988701]",53.3988701,-6.27054
339,320000,"1 Moylaragh Drive, Balbriggan, Co. Dublin",3,3,98.0,3265.0,Point,"[-6.2014344, 53.6114447]",53.6114447,-6.2014344
340,330000,"7 Clonuske Park, Balbriggan, Co. Dublin",4,3,108.0,3056.0,Point,"[-6.1985168, 53.6172048]",53.6172048,-6.1985168
341,330000,"62 The Water Rill, Waterside, Malahide, Co. Dublin",3,2,105.0,3143.0,Point,"[-6.202112, 53.4519955]",53.4519955,-6.202112
342,2250000,"Pineview, Ballybride Road, Rathmichael, Co. Dublin",6,6,440.0,5114.0,Point,"[-6.134777199999999, 53.2304855]",53.2304855,-6.134777199999999
343,210000,"Apartment 13, Woodrun, Blanchardstown, Dublin 15",1,1,53.0,3962.0,Point,"[-6.3759736, 53.3842081]",53.3842081,-6.3759736
344,295000,"1 Cammock, Mount Brown, Dublin 8",2,1,65.0,4538.0,Point,"[-6.298763399999999, 53.3414811]",53.3414811,-6.298763399999999
345,424950,"Knockaderry, 16 Saint Pappin Road, Glasnevin, Dublin 11",3,1,90.0,4722.0,Point,"[-6.267665999999999, 53.38589109999999]",53.38589109999999,-6.267665999999999
346,235000,"1 Sycamore Court, New Cabra Road, Dublin 7",2,1,46.0,5109.0,Point,"[-6.2968023, 53.3613426]",53.3613426,-6.2968023
347,545000,"11 Saint Brigid's Close, Killester, Dublin 5",3,3,99.0,5505.0,Point,"[-6.2077167, 53.3807938]",53.3807938,-6.2077167
348,245000,"Apartment 8, Kingsmill Court, Dublin 1",1,1,44.0,5568.0,Point,"[-6.270360699999999, 53.3510508]",53.3510508,-6.270360699999999
349,570000,"24 Clonsilla Park, Blanchardstown, Dublin 15",3,2,118.0,4831.0,Point,"[-6.3822493, 53.3865959]",53.3865959,-6.3822493
350,195000,"10 Kilwarden Court, Clondalkin, Dublin 22",2,1,57.0,3421.0,Point,"[-6.3970166, 53.31617929999999]",53.31617929999999,-6.3970166
351,425000,"61 Mountain View Drive, Rathfarnham, Dublin 14",3,2,71.0,5986.0,Point,"[-6.2621641, 53.2904102]",53.2904102,-6.2621641
352,215000,"Apartment 32, Killininny Court, Firhouse, Dublin 24",1,1,38.0,5658.0,Point,"[-6.340978000000001, 53.2808224]",53.2808224,-6.340978000000001
353,2750000,"Woodford Booterstown Park Booterstown, Booterstown, Co. Dublin",5,4,455.0,6044.0,Point,"[-6.197081, 53.3017945]",53.3017945,-6.197081
354,595000,"Rockspring, 4 Meadow Villas, Churchtown, Dublin 14",3,2,117.0,5085.0,Point,"[-6.2624616, 53.2868098]",53.2868098,-6.2624616
355,440000,"25 Martine Court, Skerries, Co. Dublin",3,1,81.0,5432.0,Point,"[-6.1119045, 53.5762778]",53.5762778,-6.1119045
356,245000,"Apartment 114, Premier Square, Finglas, Dublin 11",2,2,68.0,3603.0,Point,"[-6.289761899999999, 53.3817894]",53.3817894,-6.289761899999999
357,495000,"14 Kilcolman Court, Glenageary, Co. Dublin",3,2,95.0,5211.0,Point,"[-6.1262278, 53.277713]",53.277713,-6.1262278
358,380000,"27 Bakers Close, Lusk, Co. Dublin",4,3,132.0,2879.0,Point,"[-6.1643002, 53.53005350000001]",53.53005350000001,-6.1643002
359,635000,"4 Ballynakelly View, Newcastle, Co. Dublin",6,5,300.0,2117.0,Point,"[-6.4904559, 53.2948993]",53.2948993,-6.4904559
360,2000000,"Beancroft, Kilmashogue Lane, Dublin 16",7,6,412.0,4854.0,Point,"[-6.2766049, 53.2612236]",53.2612236,-6.2766049
361,1400000,"20 Streamstown Wood, Streamstown Lane, K36E762, Malahide, Co. Dublin",5,5,379.0,3694.0,Point,"[-6.1811232, 53.4373282]",53.4373282,-6.1811232
362,595000,"2 Hill Cottages, Killiney Hill Road, Killiney, Co. Dublin",2,1,71.0,8380.0,Point,"[-6.118572, 53.2573411]",53.2573411,-6.118572
363,385000,"77 Clonliffe Avenue, Dublin 3",2,1,72.0,5347.0,Point,"[-6.2446154, 53.3605128]",53.3605128,-6.2446154
364,1300000,"Rath Na Ngall, Kilgobbin Road, Stepaside, Dublin 18",3,2,140.0,9286.0,Point,"[-6.2162083, 53.2560535]",53.2560535,-6.2162083
365,1250000,"1A Thormanby Woods, Howth, Dublin 13",6,2,186.0,6720.0,Point,"[-6.058868299999999, 53.3770171]",53.3770171,-6.058868299999999
366,795000,"130 Carysfort Park, Blackrock, Co. Dublin",4,3,110.0,7227.0,Point,"[-6.1839457, 53.2928677]",53.2928677,-6.1839457
367,395000,"11 Grace Park Heights, Drumcondra, Dublin 9",3,2,105.0,3762.0,Point,"[-6.2394634, 53.3792859]",53.3792859,-6.2394634
368,495000,"36 Glenbourne Road, Leopardstown Valley, Leopardstown, Dublin 18",3,3,95.0,5211.0,Point,"[-6.2004106, 53.2594774]",53.2594774,-6.2004106
369,435000,"Apartment 5, Hazelbrook, Dublin 14",2,2,79.0,5506.0,Point,"[-6.348432, 53.2995996]",53.2995996,-6.348432
370,425000,"18 Kittiwake, Barnageeragh Cove, Skerries, Co. Dublin",2,2,73.0,5822.0,Point,"[-6.1354671, 53.5851412]",53.5851412,-6.1354671
371,350000,"46 The William Bligh, The Gasworks, Ringsend, Dublin 4",1,1,54.0,6481.0,Point,"[-6.235107699999999, 53.339063]",53.339063,-6.235107699999999
372,250000,"8 St. Johns Close, Clondalkin, D22X2A2, Dublin 22",2,1,58.0,4310.0,Point,"[-6.406795799999999, 53.31571229999999]",53.31571229999999,-6.406795799999999
373,320000,"20 Chapel Farm Row, Lusk, Co. Dublin",3,3,95.0,3368.0,Point,"[-6.1721824, 53.5242733]",53.5242733,-6.1721824
374,250000,"227 Landen Road, Ballyfermot, Ballyfermot, Dublin 10",2,1,62.0,4032.0,Point,"[-6.3376836, 53.3393548]",53.3393548,-6.3376836
375,289950,"38 Melville Park, Finglas, Dublin 11",3,3,117.0,2478.0,Point,"[-6.2951171, 53.4011118]",53.4011118,-6.2951171
376,345000,"11C Blessington Lane, Phibsborough, Dublin 7",1,1,66.0,5227.0,Point,"[-6.2690069, 53.356525]",53.356525,-6.2690069
377,385000,"Apartment 40, The Willow, Dundrum, Dublin 14",2,2,72.0,5347.0,Point,"[-6.2368061, 53.2866552]",53.2866552,-6.2368061
378,595000,"Subiaco, 28C Stable Lane Mews, Monkstown, Co. Dublin",2,1,92.0,6467.0,Point,"[-6.139935599999999, 53.2961701]",53.2961701,-6.139935599999999
379,235000,"36 Sheepmoor Avenue, Blanchardstown, Blanchardstown, Dublin 15",3,2,101.0,2327.0,Point,"[-6.4026992, 53.39349730000001]",53.39349730000001,-6.4026992
380,535000,"100 Castleheath, Malahide, Co. Dublin",3,3,122.0,4385.0,Point,"[-6.179422300000001, 53.4469492]",53.4469492,-6.179422300000001
381,625000,"39 Patrick Street, Dun Laoghaire, Co. Dublin",2,2,80.0,7812.0,Point,"[-6.1384303, 53.29009629999999]",53.29009629999999,-6.1384303
382,580000,"40 Ennafort Road, Raheny, Dublin 5",3,1,95.0,6105.0,Point,"[-6.1874672, 53.37932439999999]",53.37932439999999,-6.1874672
383,360000,"71 Hillcrest Drive, Lucan, Co. Dublin",3,1,82.0,4390.0,Point,"[-6.453189399999999, 53.3511843]",53.3511843,-6.453189399999999
384,3500000,"30 Waltham Terrace Blackrock, Blackrock, Co. Dublin",5,2,330.0,10606.0,Point,"[-6.1889826, 53.2977965]",53.2977965,-6.1889826
385,375000,"33 Boroimhe Hazel, Swords, Co. Dublin",3,3,97.0,3866.0,Point,"[-6.232402899999999, 53.4431068]",53.4431068,-6.232402899999999
386,265000,"Apartment 12, Burnell Square, Malahide Road, Northern Cross",2,2,69.0,3841.0,Point,"[-6.1801432, 53.40422100000001]",53.40422100000001,-6.1801432
387,800000,"3, 51 Powerscourt, Off Mount Street Crescent, Dublin 2",3,3,118.0,6780.0,Point,"[-6.244387499999999, 53.3368692]",53.3368692,-6.244387499999999
388,875000,"11 Coulson Avenue, Rathgar, Rathgar, Dublin 6",4,1,130.0,6731.0,Point,"[-6.277092, 53.3143859]",53.3143859,-6.277092
389,455000,"Apartment C, The Granary, Dublin 8",2,2,96.0,4740.0,Point,"[-6.288138900000001, 53.340033]",53.340033,-6.288138900000001
390,440000,"7 Moyclare Avenue, Baldoyle, Baldoyle, Dublin 13",3,2,81.0,5432.0,Point,"[-6.126981499999999, 53.3930239]",53.3930239,-6.126981499999999
391,465000,"84 Harcourt Green, Charlemont Street, South City Centre, Dublin 2",2,2,65.0,7154.0,Point,"[-6.260471000000001, 53.33127409999999]",53.33127409999999,-6.260471000000001
392,600000,"12 Tara Hill Grove, Rathfarnham, Dublin 14",2,2,122.0,4918.0,Point,"[-6.2858898, 53.2903525]",53.2903525,-6.2858898
393,595000,"3 Treen Hill, Lusk, Co. Dublin",5,1,199.0,2990.0,Point,"[-6.1695528, 53.52690339999999]",53.52690339999999,-6.1695528
394,550000,"31 Belarmine View, Stepaside, Dublin 18",3,3,110.0,5000.0,Point,"[-6.2172864, 53.2584818]",53.2584818,-6.2172864
395,230000,"55 Mayeston Square, Finglas, D11HN63, Dublin 11",2,2,72.0,3194.0,Point,"[-6.2889772, 53.4075131]",53.4075131,-6.2889772
396,229950,"111 Castleland Court, Balbriggan, Co. Dublin",2,2,74.0,3107.0,Point,"[-6.1788846, 53.6028834]",53.6028834,-6.1788846
397,245000,"115 Castleland Court, Balbriggan, Co. Dublin",2,3,85.0,2882.0,Point,"[-6.177990899999999, 53.6027129]",53.6027129,-6.177990899999999
398,795000,"420 Howth Road, Raheny, Dublin 5",3,2,126.0,6310.0,Point,"[-6.186188, 53.3779558]",53.3779558,-6.186188
399,230000,"53 Sandyhill Gardens, Ballymun, Ballymun, Dublin 9",4,2,90.0,2556.0,Point,"[-6.273141, 53.39737820000001]",53.39737820000001,-6.273141
400,530000,"Apartment 30, Castle Gate, Dublin 2",2,2,75.0,7067.0,Point,"[-6.2449042, 53.2874808]",53.2874808,-6.2449042
401,289950,"Apartment 18, Ridgewood Grove, Swords, Co. Dublin",3,2,96.0,3020.0,Point,"[-6.2442578, 53.44465839999999]",53.44465839999999,-6.2442578
402,975000,"5 Friarsland, Roebuck Road, Clonskeagh, Dublin 14",5,5,175.0,5571.0,Point,"[-6.2347144, 53.3033498]",53.3033498,-6.2347144
403,495000,"Donovan Butchers, Main Street, Rathcoole, Co. Dublin",2,1,239.0,2071.0,Point,"[-6.471032000000001, 53.2811294]",53.2811294,-6.471032000000001
404,294950,"4 Corrig House, Corrig Avenue, Dun Laoghaire, Co. Dublin",1,1,47.0,6276.0,Point,"[-6.134868699999999, 53.2882764]",53.2882764,-6.134868699999999
405,375000,"68 Rochfort Park, Lucan, Co. Dublin",3,3,102.0,3676.0,Point,"[-6.4163393, 53.3479099]",53.3479099,-6.4163393
406,265000,"190 Le Fanu Road, Ballyfermot, Ballyfermot, Dublin 10",3,1,89.0,2978.0,Point,"[-6.3557236, 53.3427083]",53.3427083,-6.3557236
407,295000,"Apartment 14A, The Plaza Crescent, Swords, Co. Dublin",2,1,65.0,4538.0,Point,"[-6.219534899999999, 53.4563877]",53.4563877,-6.219534899999999
408,335000,"Apartment 8, Rathborne Court, Ashtown, Dublin 15",2,2,81.0,4136.0,Point,"[-6.3252102, 53.3757657]",53.3757657,-6.3252102
409,445000,"63 McCabe Villas, Booterstown, Co. Dublin",2,1,68.0,6544.0,Point,"[-6.2023326, 53.3049042]",53.3049042,-6.2023326
410,1195000,"97B Highfield Park, Dundrum, Dundrum, Dublin 14",3,3,180.0,6639.0,Point,"[-6.2497269, 53.2996247]",53.2996247,-6.2497269
411,395000,"49 Killakee Avenue, Firhouse, Dublin 24",3,1,84.0,4702.0,Point,"[-6.3442226, 53.2799528]",53.2799528,-6.3442226
412,550000,"130 Dorney Court, Shankill, Dublin 18",3,2,102.0,5392.0,Point,"[-6.120801999999999, 53.23230119999999]",53.23230119999999,-6.120801999999999
413,450000,"Apartment 28, Stanford, Ardilea, Clonskeagh, Dublin 14",2,2,78.0,5769.0,Point,"[-6.2279599, 53.3002966]",53.3002966,-6.2279599
414,425000,"6 Russell Avenue, Drumcondra, Drumcondra, Dublin 3",4,4,80.0,5312.0,Point,"[-6.25372, 53.3614095]",53.3614095,-6.25372
415,375000,"27 Foxwood, Swords, Co. Dublin",3,3,82.0,4573.0,Point,"[-6.211887, 53.4532901]",53.4532901,-6.211887
416,335000,"Apartment 227, The Camden, Dublin 4",1,1,46.0,7283.0,Point,"[-6.2655781, 53.3360289]",53.3360289,-6.2655781
417,275000,"Apartment 24 Swift Hall, The Coombe, Dublin 8",1,1,41.0,6707.0,Point,"[-6.2750518, 53.3396067]",53.3396067,-6.2750518
418,494950,"18 Beechwood Lawn, Glenageary, Co. Dublin",3,1,85.0,5823.0,Point,"[-6.137650499999999, 53.26874489999999]",53.26874489999999,-6.137650499999999
419,725000,"45 Stillorgan Wood, Stillorgan, Co. Dublin",4,3,155.0,4677.0,Point,"[-6.211045899999999, 53.282236]",53.282236,-6.211045899999999
420,295000,"44 Old, Kilmainham, Dublin 8",2,1,70.0,4214.0,Point,"[-6.3064553, 53.3407819]",53.3407819,-6.3064553
421,750000,"The Townhouse, 3 Taney Park, Dundrum, Dublin 14",3,4,168.0,4464.0,Point,"[-6.2431567, 53.2923825]",53.2923825,-6.2431567
422,395000,"1 Haydens Park Close, Lucan, Co. Dublin",3,2,101.0,3911.0,Point,"[-6.440633099999999, 53.3389827]",53.3389827,-6.440633099999999
423,195000,"60 Turvey Wood Donabate, Donabate, Co. Dublin",1,1,47.0,4149.0,Point,"[-6.1581455, 53.4882267]",53.4882267,-6.1581455
424,320000,"8 Ashfield Close, Balbriggan, Co. Dublin",3,3,99.0,3232.0,Point,"[-6.1960244, 53.6142423]",53.6142423,-6.1960244
425,495000,"14 Saint Lawrence Terrace, Howth, Dublin 13",2,1,55.0,9000.0,Point,"[-6.0671896, 53.3848669]",53.3848669,-6.0671896
426,395000,"4 Forest Avenue, Kingswood Heights, Tallaght, D24 E27T, Dublin 24",3,2,100.0,3950.0,Point,"[-6.363493, 53.3083453]",53.3083453,-6.363493
427,1100000,"31 Stillorgan Park, Blackrock, Co. Dublin",4,3,156.0,7051.0,Point,"[-6.182251099999999, 53.28999899999999]",53.28999899999999,-6.182251099999999
428,260000,"291 Palmerstown Woods, Clondalkin, Clondalkin, Dublin 22",3,1,90.0,2889.0,Point,"[-6.391049499999999, 53.3379266]",53.3379266,-6.391049499999999
429,785000,"23 Glenageary Park, Glenageary, Co. Dublin",5,1,131.0,5992.0,Point,"[-6.1330279, 53.27842889999999]",53.27842889999999,-6.1330279
430,395000,"23 Whitechurch View, Rathfarnham, Dublin 16",3,2,105.0,3762.0,Point,"[-6.285741199999999, 53.2754482]",53.2754482,-6.285741199999999
431,497500,"93 Scholarstown Park, Rathfarnham, Rathfarnham, Dublin 14",3,1,89.0,5590.0,Point,"[-6.309452599999999, 53.280089]",53.280089,-6.309452599999999
432,795000,"4 Northumberland Avenue, Dun Laoghaire, Co. Dublin",4,3,171.0,4649.0,Point,"[-6.135441, 53.29110799999999]",53.29110799999999,-6.135441
433,799950,"22 Thomastown Road, Glenageary, Co. Dublin",4,4,256.0,3125.0,Point,"[-6.1351219, 53.2701432]",53.2701432,-6.1351219
434,395000,"22 The Telford Building, Heuston South Quarter, St John Road West, Dublin 8",2,3,85.0,4647.0,Point,"[-6.297569999999999, 53.3443863]",53.3443863,-6.297569999999999
435,495000,"Apt 53 Smithfield Market, Block A, Smithfield, Dublin 1",3,2,83.0,5964.0,Point,"[-6.2779649, 53.3484867]",53.3484867,-6.2779649
436,260000,"41 The Green, Larch Hill, Santry, Dublin 9",2,1,71.0,3662.0,Point,"[-6.2334593, 53.3905501]",53.3905501,-6.2334593
437,645000,"Pineview, Slievethoul, Rathcoole, Co. Dublin",4,3,200.0,3225.0,Point,"[-6.476617999999999, 53.2484188]",53.2484188,-6.476617999999999
438,650000,"82 Sutton Park, Sutton, Dublin 13",4,2,144.0,4514.0,Point,"[-6.131772199999999, 53.3884965]",53.3884965,-6.131772199999999
439,1650000,"St Josephs, 10 Belgrove Road, Clontarf, Dublin 3",5,2,198.0,8333.0,Point,"[-6.198437999999999, 53.3615182]",53.3615182,-6.198437999999999
440,289950,"11 Newlands Manor Park, Clondalkin, Clondalkin, Dublin 22",3,3,109.0,2660.0,Point,"[-6.4078186, 53.30899119999999]",53.30899119999999,-6.4078186
441,225000,"31 Block A, The Maltings, Dublin 8",1,1,45.0,5000.0,Point,"[-6.2839811, 53.3453687]",53.3453687,-6.2839811
442,249950,"Apartment 66, Premier Square, Finglas, Dublin 11",2,2,66.0,3787.0,Point,"[-6.289761899999999, 53.3817894]",53.3817894,-6.289761899999999
443,275000,"Apartment 72, Dakota Court, Royal Canal Bank, Dublin 7",1,1,58.0,4741.0,Point,"[-6.2695704, 53.3636195]",53.3636195,-6.2695704
444,395000,"21 Kirkwood, Park Avenue, Sandymount, Dublin 4",2,1,64.0,6172.0,Point,"[-6.2130209, 53.3252899]",53.3252899,-6.2130209
445,795000,"65 Shrewsbury Park, Ballsbridge, Ballsbridge, Dublin 4",3,3,130.0,6115.0,Point,"[-6.2182037, 53.3241605]",53.3241605,-6.2182037
446,169000,"23 Castlemill, Hamlet Lane, Balbriggan, Co. Dublin",2,2,70.0,2414.0,Point,"[-6.206637, 53.61311]",53.61311,-6.206637
447,460000,"37 Aikenhead Terrace, Stella Gardens, Dublin 4",3,1,79.0,5823.0,Point,"[-6.2265003, 53.3390699]",53.3390699,-6.2265003
448,425000,"16 Mount Argus Crescent, Harold's Cross, Dublin 6W",2,1,61.0,6967.0,Point,"[-6.2897963, 53.3220872]",53.3220872,-6.2897963
449,1450000,"13 Victoria Road, Rathgar, Dublin 6",4,3,200.0,7250.0,Point,"[-6.2761727, 53.3086177]",53.3086177,-6.2761727
450,750000,"14 Richmond Park, Monkstown, Co. Dublin",3,1,100.0,7500.0,Point,"[-6.1562363, 53.2920256]",53.2920256,-6.1562363
451,375000,"28 Olivemount Road, Dublin 14",3,2,95.0,3947.0,Point,"[-6.2440204, 53.3040932]",53.3040932,-6.2440204
452,1395000,"Kincade, Shielmartin Road, Sutton, Dublin 13",4,5,226.0,6173.0,Point,"[-6.0948566, 53.3744824]",53.3744824,-6.0948566
453,298000,"105 Parkgate Place, Parkgate Street, Islandbridge, Dublin 8",1,1,50.0,5960.0,Point,"[-6.2945417, 53.3474734]",53.3474734,-6.2945417
454,325000,"End Cottage, 544 Ballymount Road Lower, Walkinstown, Dublin 12",3,1,85.0,3824.0,Point,"[-6.3429225, 53.3169783]",53.3169783,-6.3429225
455,795000,"Malta, 1 Fonthill Road, Rathfarnham, Dublin 14",5,2,144.0,5521.0,Point,"[-6.290006099999999, 53.28852639999999]",53.28852639999999,-6.290006099999999
456,320000,"24 Paddocks Place, Lucan, Co. Dublin",3,3,113.0,2832.0,Point,"[-6.458197999999999, 53.347283]",53.347283,-6.458197999999999
457,295000,"12 Thomas Davis Street West, Inchicore, D08R3HE, Dublin 8",2,1,55.0,5364.0,Point,"[-6.3206487, 53.3380688]",53.3380688,-6.3206487
457,295000,"12 Thomas Davis Street West, Inchicore, D08R3HE, Dublin 8",2,1,55.0,5364.0,Point,"[-6.3206487, 53.3380688]",53.3380688,-6.3206487
1883,295000,"12 Thomas Davis Street West, Inchicore, D08R3HE, Dublin 8",2,1,55.0,5364.0,Point,"[-6.3206487, 53.3380688]",53.3380688,-6.3206487
1883,295000,"12 Thomas Davis Street West, Inchicore, D08R3HE, Dublin 8",2,1,55.0,5364.0,Point,"[-6.3206487, 53.3380688]",53.3380688,-6.3206487
458,270000,"Apartment 28, Belfry House, The Oaks, Swords, Co. Dublin",2,1,66.0,4091.0,Point,"[-6.242976, 53.4454462]",53.4454462,-6.242976
459,475000,"Apartment 80, The Clayton, The Gasworks, Dublin 4",3,1,71.0,6690.0,Point,"[-6.235107699999999, 53.339063]",53.339063,-6.235107699999999
460,215000,"83 Decies Road, Ballyfermot, Dublin 10",2,1,60.0,3583.0,Point,"[-6.338075400000001, 53.340526]",53.340526,-6.338075400000001
461,1675000,"18 Garville Road, Rathgar, Dublin 6",4,3,218.0,7683.0,Point,"[-6.2694252, 53.3157937]",53.3157937,-6.2694252
462,495000,"22 Wood Dale Green, Ballycullen, Dublin 24",4,3,121.0,4091.0,Point,"[-6.337156299999999, 53.2752546]",53.2752546,-6.337156299999999
463,335000,"12 Lein Park, Artane, Dublin 5",2,1,80.0,4188.0,Point,"[-6.185524, 53.3817309]",53.3817309,-6.185524
464,415000,"15 Killiney Hill Park, Killiney, Co. Dublin",2,2,70.0,5929.0,Point,"[-6.114876499999999, 53.26601780000001]",53.26601780000001,-6.114876499999999
465,425000,"87 Red Arches Road, The Coast, Baldoyle, Dublin 13",4,3,145.0,2931.0,Point,"[-6.1433811, 53.4010978]",53.4010978,-6.1433811
466,310000,"66 Stonebridge Avenue, Clonsilla, Dublin 15",3,1,80.0,3875.0,Point,"[-6.4235491, 53.3903502]",53.3903502,-6.4235491
467,370000,"101 Esker Park, Lucan, Co. Dublin",4,1,98.0,3776.0,Point,"[-6.434134299999999, 53.3523954]",53.3523954,-6.434134299999999
468,375000,"7 Berwick Walk, Swords, Co. Dublin",3,3,90.0,4167.0,Point,"[-6.2499408, 53.4601202]",53.4601202,-6.2499408
469,320000,"Apartment 6, Brock Hall, Dun Laoghaire, Co. Dublin",1,1,52.0,6154.0,Point,"[-6.1420826, 53.2943508]",53.2943508,-6.1420826
470,435000,"32 The Grove, Skerries Rock, Skerries, Co. Dublin",3,3,95.0,4579.0,Point,"[-6.1184638, 53.58003189999999]",53.58003189999999,-6.1184638
471,550000,"37 Ballinteer Drive, Dundrum, Dublin 14",3,1,110.0,5000.0,Point,"[-6.251890299999999, 53.2786629]",53.2786629,-6.251890299999999
472,450000,"22 Leinster Avenue, North Strand, North Strand, Dublin 3",2,1,72.0,6250.0,Point,"[-6.238670099999999, 53.3591839]",53.3591839,-6.238670099999999
473,260000,"24 Craoibhin Park, Balbriggan, Co. Dublin",2,1,79.0,3291.0,Point,"[-6.178426399999999, 53.6056673]",53.6056673,-6.178426399999999
474,700000,"21 Elmpark Avenue, Ranelagh, Ranelagh, Dublin 6",3,1,104.0,6731.0,Point,"[-6.254586199999999, 53.32401789999999]",53.32401789999999,-6.254586199999999
475,775000,"2B Foxfield Park, Raheny, Raheny, Dublin 5",4,4,162.0,4784.0,Point,"[-6.1607281, 53.38133999999999]",53.38133999999999,-6.1607281
476,295000,"6 Main Street, Ongar Village, Ongar, Dublin 15",3,3,138.0,2138.0,Point,"[-6.4397161, 53.3957158]",53.3957158,-6.4397161
477,325000,"27 Saint Michaels Terrace, Blackpitts, Dublin 8",2,1,47.0,6915.0,Point,"[-6.2772095, 53.3355105]",53.3355105,-6.2772095
478,320000,"Apartment 71 The Strand 149 North Strand Road, North Strand, Dublin 3",2,2,73.0,4384.0,Point,"[-6.242997, 53.3571354]",53.3571354,-6.242997
479,280000,"365 Mourne Road, Drimnagh, Dublin 12",2,1,60.0,4667.0,Point,"[-6.306723, 53.333188]",53.333188,-6.306723
480,695000,"30 Vale View Avenue, Cabinteely, Dublin 18",4,2,143.0,4860.0,Point,"[-6.163937499999999, 53.2634537]",53.2634537,-6.163937499999999
481,425000,"36 Tivoli Terrace East, Dun Laoghaire, Co. Dublin",2,1,69.0,6159.0,Point,"[-6.1396599, 53.29123939999999]",53.29123939999999,-6.1396599
482,1595000,"15 Waltham Terrace Blackrock, Blackrock, Co. Dublin",4,2,198.0,8056.0,Point,"[-6.1889204, 53.2991004]",53.2991004,-6.1889204
483,610000,"64 St. Assams Park, Raheny, Dublin 5",3,2,106.0,5755.0,Point,"[-6.165353, 53.3817763]",53.3817763,-6.165353
484,335000,"33 East Wall Road, East Wall, Dublin 3",3,1,75.0,4467.0,Point,"[-6.236814, 53.3592173]",53.3592173,-6.236814
485,399950,"35 Belmayne Park North, Balgriffin, Belmayne",4,2,124.0,3225.0,Point,"[-6.173189799999999, 53.4055519]",53.4055519,-6.173189799999999
486,330000,"40 Rosepark, Balrothery, Balbriggan, Co. Dublin",3,3,102.0,3235.0,Point,"[-6.185589299999999, 53.5856343]",53.5856343,-6.185589299999999
487,250000,"51 Phibblestown House, Clonee, Dublin 15",2,2,73.0,3425.0,Point,"[-6.436471, 53.3993929]",53.3993929,-6.436471
488,635000,"10 Diswellstown Park, Hamilton Park, Castleknock, Dublin 15",4,3,144.0,4410.0,Point,"[-6.358486800000001, 53.37192150000001]",53.37192150000001,-6.358486800000001
489,470000,"20 Airpark House, Rathfarnham, Dublin 16",2,2,112.0,4196.0,Point,"[-6.304576099999999, 53.2743386]",53.2743386,-6.304576099999999
490,550000,"21 Lansdowne Crescent, Ballsbridge, Dublin 4",2,1,68.0,8088.0,Point,"[-6.2355683, 53.3349437]",53.3349437,-6.2355683
491,325000,"6 Belfry Close, Citywest Road, Citywest, Co. Dublin",3,3,108.0,3009.0,Point,"[-6.416238, 53.2784231]",53.2784231,-6.416238
492,455000,"352 Cashel Road, Kimmage, Kimmage, Dublin 12",3,3,89.0,5112.0,Point,"[-6.3016688, 53.3158576]",53.3158576,-6.3016688
493,1400000,"Off Market Listing, Mount Anville Road, Mount Merrion, Co. Dublin",4,2,188.0,7447.0,Point,"[-6.22218, 53.29414]",53.29414,-6.22218
494,335000,"29 Mask Drive, Artane, Artane, Dublin 5",2,1,66.0,5076.0,Point,"[-6.1988875, 53.38380799999999]",53.38380799999999,-6.1988875
495,595000,"194 Kimmage Road West, Kimmage, Dublin 12",3,2,146.0,4075.0,Point,"[-6.316071099999999, 53.3162898]",53.3162898,-6.316071099999999
496,360000,"Apartment 35, The Atrium, The Steelworks, Dublin 1",2,2,60.0,6000.0,Point,"[-6.250944199999999, 53.3525048]",53.3525048,-6.250944199999999
497,335000,"Apartment 2, Richmond Villas, Dublin 2",2,1,51.0,6569.0,Point,"[-6.264555199999999, 53.3322705]",53.3322705,-6.264555199999999
498,345000,"64 Stannaway Road, Crumlin, Dublin 12",2,1,57.0,6053.0,Point,"[-6.2971415, 53.321359]",53.321359,-6.2971415
499,380000,"Apt 1, Apt 1, 3 Proby Square, Blackrock, Co. Dublin",2,1,60.0,6333.0,Point,"[-6.1790993, 53.29305489999999]",53.29305489999999,-6.1790993
500,395000,"16 Clanboy Road, Donnycarney, Dublin 5",2,1,62.0,6371.0,Point,"[-6.212016999999999, 53.3766118]",53.3766118,-6.212016999999999
501,310000,"9 Dun Emer Glade, Lusk, Co. Dublin",3,3,118.0,2627.0,Point,"[-6.1770832, 53.5241687]",53.5241687,-6.1770832
502,525000,"110 Nephin Road, Navan Road, Navan Road (D7), Dublin 7",3,1,110.0,4773.0,Point,"[-6.305911999999999, 53.3660651]",53.3660651,-6.305911999999999
503,515000,"Apartment 86, Block A, Smithfield, Dublin 1",3,2,92.0,5598.0,Point,"[-6.2603097, 53.3498053]",53.3498053,-6.2603097
504,325000,"Apartment 18, The Lighthouse, The Crescent, Malahide, Co. Dublin",1,1,56.0,5804.0,Point,"[-6.1310797, 53.4444758]",53.4444758,-6.1310797
505,659000,"169 New Cabra Road, Cabra, Dublin 7",3,2,140.0,4707.0,Point,"[-6.2781356, 53.36101379999999]",53.36101379999999,-6.2781356
506,800000,"Flat 1, 61 North Circular Road, Dublin 7",4,3,190.0,4211.0,Point,"[-6.2951925, 53.3543056]",53.3543056,-6.2951925
507,520000,"2 Faulkners Terrace, Kilmainham, Kilmainham, Dublin 8",2,2,102.0,5098.0,Point,"[-6.300109399999999, 53.3412795]",53.3412795,-6.300109399999999
508,545000,"Granuaile, 4A Brookstone Road, Baldoyle, Dublin 13",3,2,103.0,5291.0,Point,"[-6.131189, 53.3962302]",53.3962302,-6.131189
509,895000,"13 Church Gardens, Rathmines, Dublin 6",2,3,125.0,7160.0,Point,"[-6.264322399999999, 53.3214514]",53.3214514,-6.264322399999999
510,1500000,"2 Charleville Manor, Knocklyon, Dublin 16",5,6,369.0,4065.0,Point,"[-6.313992, 53.290101]",53.290101,-6.313992
511,910000,"2 Beaverbrook, Donabate, Co. Dublin",5,3,194.0,4691.0,Point,"[-6.1455218, 53.4961267]",53.4961267,-6.1455218
512,255000,"Apt 6 Kingscourt, Aughrim St, Dublin 7",1,1,43.0,5930.0,Point,"[-6.2892738, 53.3543493]",53.3543493,-6.2892738
513,285000,"10 Ferns Road, Crumlin, Dublin 12",2,1,66.0,4318.0,Point,"[-6.2962235, 53.3219305]",53.3219305,-6.2962235
514,195000,"Apartment 43, Walton Hall, Thornleigh Road, Swords, Co. Dublin",2,2,60.0,3250.0,Point,"[-6.2327183, 53.4739778]",53.4739778,-6.2327183
515,275000,"53 McKelvey Avenue D11 C9P0, Finglas, Dublin 11",3,1,72.0,3819.0,Point,"[-6.306608799999999, 53.4008631]",53.4008631,-6.306608799999999
516,199000,"Apartment 4, 3 Railway Road, Clongriffin, Dublin 13",1,1,50.0,3980.0,Point,"[-6.1515431, 53.4020038]",53.4020038,-6.1515431
517,295000,"57 Viking Road, Arbour Hill, Stoneybatter, Dublin 7",2,1,55.0,5364.0,Point,"[-6.2908618, 53.3496979]",53.3496979,-6.2908618
518,695000,"Apartment 16, Lansdowne Wood, Lansdowne Road, Ballsbridge, Dublin 4",2,2,103.0,6748.0,Point,"[-6.235307799999999, 53.33275630000001]",53.33275630000001,-6.235307799999999
519,410000,"11 Berwick Crescent, Swords Manor, Swords, Co. Dublin",3,3,131.0,3130.0,Point,"[-6.248306599999999, 53.4623772]",53.4623772,-6.248306599999999
520,475000,"137 Temple Gardens, Northwood, Santry, Dublin 9",3,2,136.0,3493.0,Point,"[-6.259557, 53.40365449999999]",53.40365449999999,-6.259557
521,1295000,"Tír Na Nóg, 138 Howth Road, Howth, Dublin 13",4,2,211.0,6137.0,Point,"[-6.098356099999999, 53.39078199999999]",53.39078199999999,-6.098356099999999
522,475000,"142 Alexandra Building, Adelaide Square, Whitefriar Street, Dublin 8",2,1,69.0,6884.0,Point,"[-6.267743299999999, 53.3399199]",53.3399199,-6.267743299999999
523,295000,"21 Adare Green, Coolock, Dublin 17",2,1,74.0,3986.0,Point,"[-6.2072963, 53.39488979999999]",53.39488979999999,-6.2072963
524,375000,"Apartment 9, Marlfield House, Cabinteely, Dublin 18",2,2,77.0,4870.0,Point,"[-6.1773541, 53.2467094]",53.2467094,-6.1773541
525,400000,"4 Drynam Rise, Drynam Hall, Kinsealy, Co. Dublin",3,3,123.0,3252.0,Point,"[-6.1982995, 53.4419683]",53.4419683,-6.1982995
526,540000,"13 Rollins Villas, Sallynoggin, Co. Dublin",3,2,93.0,5806.0,Point,"[-6.1407169, 53.27942770000001]",53.27942770000001,-6.1407169
527,285000,"Apartment 7 Atrium Apartments, 30 Island Street, Christchurch, Dublin 8",2,1,60.0,4750.0,Point,"[-6.2825506, 53.3458498]",53.3458498,-6.2825506
528,660000,"29 Sutton Lawns, Sutton, Dublin 13",4,2,136.0,4853.0,Point,"[-6.127646299999999, 53.3913848]",53.3913848,-6.127646299999999
529,635000,"10 The Park, Skerries Rock, Skerries, Co. Dublin",4,3,125.0,5080.0,Point,"[-6.1201438, 53.58167539999999]",53.58167539999999,-6.1201438
529,635000,"10 The Park, Skerries Rock, Skerries, Co. Dublin",4,3,125.0,5080.0,Point,"[-6.1201438, 53.58167539999999]",53.58167539999999,-6.1201438
2017,650000,"10 The Park, Skerries Rock, Skerries, Co. Dublin",4,3,125.0,5200.0,Point,"[-6.1201438, 53.58167539999999]",53.58167539999999,-6.1201438
2017,650000,"10 The Park, Skerries Rock, Skerries, Co. Dublin",4,3,125.0,5200.0,Point,"[-6.1201438, 53.58167539999999]",53.58167539999999,-6.1201438
530,299000,"45 Balrothery Estate, Tallaght, Tallaght, Dublin 24",3,1,93.0,3215.0,Point,"[-6.3412061, 53.290305]",53.290305,-6.3412061
531,320000,"Block C, 118 Castleforbes Sq, IFSC, Dublin 1",1,1,50.0,6400.0,Point,"[-6.2314661, 53.3495383]",53.3495383,-6.2314661
532,240000,"19 Sundale Close, Tallaght, Dublin 24",3,1,81.0,2963.0,Point,"[-6.4074456, 53.2804991]",53.2804991,-6.4074456
533,295000,"Apartment 4, Convent Lane, Dun Laoghaire, Co. Dublin",1,1,55.0,5364.0,Point,"[-6.1381385, 53.2923914]",53.2923914,-6.1381385
534,940000,"111 Ard Na Mara, Malahide, Co. Dublin",4,2,129.0,7287.0,Point,"[-6.1716077, 53.4509552]",53.4509552,-6.1716077
535,1100000,"1 Cranford, Terenure Road West, Dublin 6W",5,3,204.0,5392.0,Point,"[-6.2920192, 53.310813]",53.310813,-6.2920192
536,385000,"Apartment 49, Cloonlara Square, Phoenix Park Racecourse, Castleknock, Dublin 15",2,2,86.0,4477.0,Point,"[-6.358486800000001, 53.37192150000001]",53.37192150000001,-6.358486800000001
537,1350000,"74 Brighton Road, Rathgar, Rathgar, Dublin 6",3,1,162.0,8333.0,Point,"[-6.279297499999999, 53.31475589999999]",53.31475589999999,-6.279297499999999
538,1150000,"33 Mountpleasant Avenue Lower, Rathmines, Ranelagh, Dublin 6",3,2,186.0,6183.0,Point,"[-6.2622019, 53.3283533]",53.3283533,-6.2622019
539,300000,"13 Deerpark Green, Kiltipper Road, Tallaght, Dublin 24",3,3,102.0,2941.0,Point,"[-6.3736182, 53.2703163]",53.2703163,-6.3736182
540,235000,"15 Westend Gate, Tallaght, Dublin 24",2,2,67.0,3507.0,Point,"[-6.3764864, 53.2855113]",53.2855113,-6.3764864
540,235000,"15 Westend Gate, Tallaght, Dublin 24",2,2,67.0,3507.0,Point,"[-6.3764864, 53.2855113]",53.2855113,-6.3764864
550,235000,"15 Westend Gate, Tallaght, Dublin 24",2,2,67.0,3507.0,Point,"[-6.3764864, 53.2855113]",53.2855113,-6.3764864
550,235000,"15 Westend Gate, Tallaght, Dublin 24",2,2,67.0,3507.0,Point,"[-6.3764864, 53.2855113]",53.2855113,-6.3764864
541,325000,"134 The Belfry, Belarmine, Stepaside, Dublin 18",2,1,71.0,4577.0,Point,"[-6.2246101, 53.2608182]",53.2608182,-6.2246101
542,650000,"78 Watson Park Killiney, Killiney, Co. Dublin",4,2,140.0,4643.0,Point,"[-6.132826499999999, 53.2585092]",53.2585092,-6.132826499999999
543,495000,"2 All Saints Road, Raheny, Dublin 5",3,1,76.0,6513.0,Point,"[-6.1883759, 53.3760445]",53.3760445,-6.1883759
544,475000,"14 Woodbine Drive, Raheny, Dublin 5",3,1,93.0,5108.0,Point,"[-6.1756101, 53.3880722]",53.3880722,-6.1756101
545,285000,"Apt 99, Block 1, The Watermill, Raheny, Dublin 5",2,2,60.0,4750.0,Point,"[-6.1920739, 53.3840559]",53.3840559,-6.1920739
546,249000,"36 Cherryfield Walk, Hartstown, D15Y5WX, Dublin 15",2,1,64.0,3891.0,Point,"[-6.4224293, 53.3961672]",53.3961672,-6.4224293
547,750000,"16 Temple Hall, Mount St Annes, Milltown, Dublin 6",3,2,103.0,7282.0,Point,"[-6.2491832, 53.312273]",53.312273,-6.2491832
548,360000,"41 Castleheath, Malahide, Co. Dublin",2,2,65.0,5538.0,Point,"[-6.179422300000001, 53.4469492]",53.4469492,-6.179422300000001
549,875000,"15 Offington Drive, Sutton, Sutton, Dublin 13",5,2,164.0,5335.0,Point,"[-6.0958235, 53.3871738]",53.3871738,-6.0958235
551,495000,"61 Dowth Avenue, Cabra, Cabra, Dublin 7",3,2,74.0,6689.0,Point,"[-6.282907100000001, 53.3616424]",53.3616424,-6.282907100000001
552,630000,"7 Carrick Court, Portmarnock, Co. Dublin",3,2,140.0,4500.0,Point,"[-6.135453399999999, 53.4246987]",53.4246987,-6.135453399999999
553,495000,"Roseview, Hynestown, Newcastle, Co. Dublin",5,3,189.0,2619.0,Point,"[-6.4977423, 53.3169121]",53.3169121,-6.4977423
554,295000,"Flemington Lane, Balbriggan, Co. Dublin",3,1,93.0,3172.0,Point,"[-6.2112165, 53.6170836]",53.6170836,-6.2112165
555,490000,"175 Collinswood, Collins Avenue, Dublin 9",3,3,89.0,5506.0,Point,"[-6.2326543, 53.3820948]",53.3820948,-6.2326543
556,279950,"7 Hunters Green, Hunters Wood, Ballycullen, Dublin 16",2,2,80.0,3499.0,Point,"[-6.3323071, 53.2704376]",53.2704376,-6.3323071
557,349000,"35 St James Rd, Walkinstown, Dublin 12",3,2,120.0,2908.0,Point,"[-6.3335588, 53.3126446]",53.3126446,-6.3335588
558,295000,"22 Liberty Court, Clanbrassil Street Lower, Dublin 8",1,1,54.0,5463.0,Point,"[-6.2741491, 53.3351522]",53.3351522,-6.2741491
559,275000,"91 An Crannog, Rochestown Ave, Dun Laoghaire, Co. Dublin",2,1,64.0,4297.0,Point,"[-6.147989, 53.2738311]",53.2738311,-6.147989
560,275000,"Apartment 3, 219 Clontarf Road, Clontarf, Dublin 3",1,1,44.0,6250.0,Point,"[-6.193369199999999, 53.3583908]",53.3583908,-6.193369199999999
561,260000,"Apartment 31, Shackleton House, Archerswood, Clonee, Dublin 15",2,2,80.0,3250.0,Point,"[-6.409179099999999, 53.40320029999999]",53.40320029999999,-6.409179099999999
562,230000,"Apartment 60, Deerpark Road, Kiltipper, Dublin 24",2,2,60.0,3833.0,Point,"[-6.3754558, 53.2709786]",53.2709786,-6.3754558
563,500000,"20 Ridgewood Park, Swords, Co. Dublin",4,2,140.0,3571.0,Point,"[-6.2456606, 53.4473912]",53.4473912,-6.2456606
564,250000,"Apartment 22, Turvey Woods, Donabate, Co. Dublin",2,1,60.0,4167.0,Point,"[-6.1580185, 53.4873079]",53.4873079,-6.1580185
565,625000,"2 Rogerstown Court, South Shore Road, Rush, Co. Dublin",4,3,162.0,3858.0,Point,"[-6.1127045, 53.51455989999999]",53.51455989999999,-6.1127045
566,280000,"14 Beau Park Mews, Clongriffin, Clongriffin, Dublin 13",2,1,57.0,4912.0,Point,"[-6.1516736, 53.4016414]",53.4016414,-6.1516736
567,225000,"Apartment 20, Tallow Hall, Belgard Square, Dublin 24",2,2,78.0,2885.0,Point,"[-6.376029399999999, 53.2860053]",53.2860053,-6.376029399999999
568,200000,"Apartment 13, Block A, The Tramyard, Inchicore, Dublin 8",1,1,41.0,4878.0,Point,"[-6.3190585, 53.3389065]",53.3389065,-6.3190585
569,250000,"Apartment 189, The Spinnaker, Dublin 7",1,1,33.0,7576.0,Point,"[-6.2917383, 53.36137240000001]",53.36137240000001,-6.2917383
570,420000,"44 Reuben Avenue, Rialto, Rialto, Dublin 8",2,1,87.0,4828.0,Point,"[-6.2927284, 53.3361145]",53.3361145,-6.2927284
571,325000,"8 Clonmacnoise Road, Crumlin, Dublin 12",2,1,72.0,4514.0,Point,"[-6.2971302, 53.32377469999999]",53.32377469999999,-6.2971302
572,245000,"1 The Iona, Prospect Hill, Finglas, D11X797, Dublin 11",2,2,75.0,3267.0,Point,"[-6.290662999999999, 53.380481]",53.380481,-6.290662999999999
573,475000,"25 Linden Court, House 3, Grove Avenue, Blackrock, Co. Dublin",2,2,66.0,7197.0,Point,"[-6.1924541, 53.2913028]",53.2913028,-6.1924541
574,795000,"119 Shrewsbury Park Ballsbridge Dublin 4, Ballsbridge, Dublin 4",3,2,128.0,6211.0,Point,"[-6.217101599999999, 53.3242487]",53.3242487,-6.217101599999999
575,345000,"64 Cherry Avenue, Rivervalley, Swords, Co. Dublin",3,1,68.0,5074.0,Point,"[-6.2350467, 53.4495474]",53.4495474,-6.2350467
576,750000,"55 Grace Park Road, Drumcondra, Dublin 9",3,2,115.0,6522.0,Point,"[-6.250907799999999, 53.37058589999999]",53.37058589999999,-6.250907799999999
577,260000,"63 Muskerry Road, Ballyfermot, Ballyfermot, Dublin 10",2,1,56.0,4643.0,Point,"[-6.3457688, 53.3402833]",53.3402833,-6.3457688
578,550000,"19 Usher Park, Knocksedan Demesne, Swords, Co. Dublin",4,3,146.0,3767.0,Point,"[-6.261888099999999, 53.453695]",53.453695,-6.261888099999999
579,650000,"8 Woodley Road, Dun Laoghaire, Co. Dublin",3,1,148.0,4392.0,Point,"[-6.1397739, 53.2655361]",53.2655361,-6.1397739
580,240000,"14 Allendale Green, Clonee, D15 Y5PD, Dublin 15",4,3,121.0,1983.0,Point,"[-6.425559, 53.3917082]",53.3917082,-6.425559
581,350000,"8 Riversdale Grove, Terenure, D6W TD21, Dublin 6W",3,1,105.0,3333.0,Point,"[-6.2967147, 53.31351859999999]",53.31351859999999,-6.2967147
582,195000,"18 The Gables, Clondalkin, D22 YD77, Dublin 22",2,1,54.0,3611.0,Point,"[-6.4308969, 53.3238564]",53.3238564,-6.4308969
583,465000,"13 Heather Drive, Rathfarnham, Dublin 16",3,1,85.0,5471.0,Point,"[-6.263050499999999, 53.2763183]",53.2763183,-6.263050499999999
584,775000,"142 Foxrock Park, Foxrock, Dublin 18",4,1,154.0,5032.0,Point,"[-6.1750457, 53.2767378]",53.2767378,-6.1750457
585,220000,"24 Amberwood, Mulhuddart, Mulhuddart, Dublin 15",1,1,51.0,4314.0,Point,"[-6.3998165, 53.4016843]",53.4016843,-6.3998165
586,359000,"23 Ballintyre Demesne, Ballinteer, Dublin 16",2,2,72.0,4986.0,Point,"[-6.2538955, 53.2739681]",53.2739681,-6.2538955
587,340000,"9 Stonecroft, Shanganagh Road, Killiney, Co. Dublin",2,2,62.0,5484.0,Point,"[-6.1212607, 53.24648209999999]",53.24648209999999,-6.1212607
588,4250000,"23 Clyde Road, Ballsbridge, Dublin 4",5,4,602.0,7060.0,Point,"[-6.2371351, 53.3292697]",53.3292697,-6.2371351
589,380000,"16 Brookdale Avenue, Swords, Co. Dublin",3,1,107.0,3551.0,Point,"[-6.2474311, 53.45171329999999]",53.45171329999999,-6.2474311
590,340000,"30 Whitechurch View, Rathfarnham, Dublin 16",3,1,78.0,4359.0,Point,"[-6.285952, 53.274632]",53.274632,-6.285952
591,397000,"14 Harbour Court, George's Place, Dun Laoghaire, Co. Dublin",2,2,72.0,5514.0,Point,"[-6.141188, 53.29517560000001]",53.29517560000001,-6.141188
592,425000,"14 Saint Domhnach's Well, Sutton, Sutton, Dublin 13",2,1,69.0,6159.0,Point,"[-6.1258531, 53.3905277]",53.3905277,-6.1258531
593,285000,"Apartment 97 The Crannog, Granitefield Manor , Rochestown Avenue, Dun Laoghaire, Co. Dublin",2,2,70.0,4071.0,Point,"[-6.147989, 53.2738311]",53.2738311,-6.147989
594,360000,"41 Meadowland Avenue, Mounttown, Dun Laoghaire, Co. Dublin",3,1,85.0,4235.0,Point,"[-6.1473028, 53.28614959999999]",53.28614959999999,-6.1473028
595,485000,"11 Margaret Place, Bath Avenue, Sandymount, Dublin 4",3,1,80.0,6062.0,Point,"[-6.232342099999999, 53.3380854]",53.3380854,-6.232342099999999
596,199500,"5 The Cornmill, Vauxhall Street, Balbriggan, Co. Dublin",2,1,71.0,2810.0,Point,"[-6.185012899999999, 53.605264]",53.605264,-6.185012899999999
597,439000,"12 Church View, Clondalkin, Dublin 22",4,2,127.0,3457.0,Point,"[-6.403846199999999, 53.3140854]",53.3140854,-6.403846199999999
598,215000,"Apartment 18 Deerpark Place, Kiltipper, Dublin 24",2,2,60.0,3583.0,Point,"[-6.3741908, 53.269219]",53.269219,-6.3741908
599,250000,"27 Malton House, Custom House Square, IFSC, Dublin 1",1,1,40.0,6250.0,Point,"[-6.2454, 53.3496231]",53.3496231,-6.2454
600,635000,"6 Obelisk Grove, St Augustines Park, Blackrock, Co. Dublin",3,3,92.0,6902.0,Point,"[-6.184658900000001, 53.2883684]",53.2883684,-6.184658900000001
601,260000,"84 Trinity Square, Townsend Street, Dublin 2",1,1,50.0,5200.0,Point,"[-6.2477094, 53.34549490000001]",53.34549490000001,-6.2477094
602,189000,"30 Thornfield Square, Clondalkin, Dublin 22",2,2,67.0,2821.0,Point,"[-6.393126, 53.32437400000001]",53.32437400000001,-6.393126
603,299950,"25 Edenmore Crescent, Raheny, Dublin 5",3,1,80.0,3749.0,Point,"[-6.180278, 53.3841064]",53.3841064,-6.180278
604,695000,"1 Drummartin Crescent, Goatstown, Dublin 14",3,2,124.0,5605.0,Point,"[-6.224768, 53.28788429999999]",53.28788429999999,-6.224768
605,450000,"4 Saint Margaret's Terrace, The Coombe, Dublin 8",2,2,81.0,5556.0,Point,"[-6.28803, 53.337098]",53.337098,-6.28803
606,1400000,"42 Beechpark Avenue, Castleknock, Dublin 15",4,2,130.0,10769.0,Point,"[-6.3608496, 53.3781319]",53.3781319,-6.3608496
607,360000,"Apartment 409, The Cubes 3, Beacon South Quarter, Sandyford, Dublin 18",2,2,68.0,5294.0,Point,"[-6.2166745, 53.2775421]",53.2775421,-6.2166745
608,800000,"Preston House, 3 Preston Street, Dublin 1",7,7,200.0,4000.0,Point,"[-6.2481165, 53.35307359999999]",53.35307359999999,-6.2481165
609,595000,"1 Block 1, Clarion Quay, Excise Walk, IFSC, Co. Dublin",3,2,95.0,6263.0,Point,"[-6.2447174, 53.3490556]",53.3490556,-6.2447174
610,265000,"Apartment 23, The Hardwicke, Smithfield, Dublin 1",2,1,70.0,3786.0,Point,"[-6.2749213, 53.351304]",53.351304,-6.2749213
611,485000,"19 Beverton Drive, Donabate, Co. Dublin",3,3,114.0,4254.0,Point,"[-6.1572713, 53.4902132]",53.4902132,-6.1572713
612,240000,"51 Casement Drive, Finglas, D11 E6X0, Dublin 11",2,1,90.0,2667.0,Point,"[-6.3094245, 53.3937811]",53.3937811,-6.3094245
613,2250000,"39 St Kevins Park, Dartry, Dublin 6",5,4,277.0,8123.0,Point,"[-6.265640299999999, 53.3103101]",53.3103101,-6.265640299999999
614,325000,"81 Dodsborough Cottages, Lucan, Co. Dublin",3,1,72.0,4514.0,Point,"[-6.4651857, 53.3494196]",53.3494196,-6.4651857
615,295000,"10 Manorfields Green, Clonee, Dublin 15",2,1,71.0,4155.0,Point,"[-6.4256645, 53.3966636]",53.3966636,-6.4256645
616,475000,"19 Beverly Lawns Knocklyon Dublin 16, Knocklyon, Dublin 16",3,2,84.0,5655.0,Point,"[-6.3212153, 53.2805675]",53.2805675,-6.3212153
617,325000,"111 Fairview Close, Richmond Avenue, Fairview, Dublin 3",2,2,72.0,4514.0,Point,"[-6.2423861, 53.36342519999999]",53.36342519999999,-6.2423861
618,410000,"15 Silverwood, Finnstown Abbey, Lucan, Co. Dublin",3,3,135.0,3037.0,Point,"[-6.4469457, 53.3440704]",53.3440704,-6.4469457
619,350000,"1A Holycross Avenue, Drumcondra, Dublin 3",2,1,51.0,6863.0,Point,"[-6.2530914, 53.363526]",53.363526,-6.2530914
620,475000,"11 Chapel Crescent, Balbriggan, Co. Dublin",4,2,125.0,3800.0,Point,"[-6.187946200000001, 53.6104169]",53.6104169,-6.187946200000001
621,385000,"21 Red Arches Drive, The Coast, Baldoyle, Dublin 13",3,3,111.0,3468.0,Point,"[-6.1432367, 53.401996]",53.401996,-6.1432367
622,875000,"130 Seapark, Malahide, Co. Dublin",5,3,140.0,6250.0,Point,"[-6.1429222, 53.4470655]",53.4470655,-6.1429222
623,295000,"139 Adamstown Avenue, Adamstown, Lucan, Co. Dublin",3,3,112.0,2634.0,Point,"[-6.4628314, 53.3374069]",53.3374069,-6.4628314
624,260000,"35 Aran Court, Waterville, Blanchardstown, Dublin 15",2,2,81.0,3210.0,Point,"[-6.373781399999999, 53.39325849999999]",53.39325849999999,-6.373781399999999
625,315000,"7 Slade Castle View, Saggart, Co. Dublin",3,3,110.0,2864.0,Point,"[-6.4448189, 53.2778364]",53.2778364,-6.4448189
626,450000,"121 Grattan Lodge, Hole In The Wall Road, Donaghmede, Dublin 13",4,2,125.0,3600.0,Point,"[-6.1672106, 53.4017031]",53.4017031,-6.1672106
627,345000,"46 Foxborough Avenue, Lucan, Co. Dublin",3,3,100.0,3450.0,Point,"[-6.4270856, 53.3421348]",53.3421348,-6.4270856
628,320000,"Apartment 6, Liberty Court Apartments, Dublin 8",2,2,65.0,4923.0,Point,"[-6.2744585, 53.3348592]",53.3348592,-6.2744585
629,435000,"11 Chapelwood View, Hollystown, Dublin 15",4,3,125.0,3480.0,Point,"[-6.3746576, 53.4319877]",53.4319877,-6.3746576
630,440000,"16 Richmond Estate, Fairview, Fairview, Dublin 3",3,2,116.0,3793.0,Point,"[-6.2419191, 53.3644845]",53.3644845,-6.2419191
631,250000,"10 The Spinnaker, Aran Quay, Smithfield, Dublin 7",1,1,54.0,4630.0,Point,"[-6.276851, 53.3460982]",53.3460982,-6.276851
632,485000,"7 Loreto Avenue, Rathfarnham, Rathfarnham, Dublin 14",3,1,89.0,5449.0,Point,"[-6.2733561, 53.2920355]",53.2920355,-6.2733561
633,250000,"46 Virginia Hall, Tallaght, Dublin 24",2,2,69.0,3623.0,Point,"[-6.375485800000001, 53.2863167]",53.2863167,-6.375485800000001
634,450000,"43 Lorcan Villas, Beaumont, Dublin 9",3,2,110.0,4091.0,Point,"[-6.2320318, 53.3916822]",53.3916822,-6.2320318
635,1295000,"9 Corrig Avenue, Dun Laoghaire, Co. Dublin",4,3,335.0,3866.0,Point,"[-6.1340731, 53.2899166]",53.2899166,-6.1340731
636,340000,"Apartment 222, The Elms, Carrington, Santry, Dublin 9",2,2,70.0,4857.0,Point,"[-6.2515941, 53.40431659999999]",53.40431659999999,-6.2515941
637,595000,"56 Bayview Avenue, North Strand, North Strand, Dublin 3",4,2,134.0,4440.0,Point,"[-6.243223, 53.3581138]",53.3581138,-6.243223
638,375000,"Apartment 13, Sorrell Hall, Ticknock Avenue, Ticknock Hill, Sandyford, Dublin 18",2,2,83.0,4518.0,Point,"[-6.2446506, 53.2680782]",53.2680782,-6.2446506
639,595000,"56 Ballinteer Crescent, Ballinteer, Dublin 16",3,1,95.0,6263.0,Point,"[-6.254232200000001, 53.2761315]",53.2761315,-6.254232200000001
640,395000,"153 Park Drive Avenue, Castleknock, Dublin 15",2,1,62.0,6371.0,Point,"[-6.3679033, 53.3761772]",53.3761772,-6.3679033
641,1395000,"52 Booterstown Avenue Booterstown, Booterstown, Co. Dublin",4,2,233.0,5987.0,Point,"[-6.197807699999999, 53.3049912]",53.3049912,-6.197807699999999
642,970000,"1 Abbey Street, Howth, Dublin 13",5,3,197.0,4924.0,Point,"[-6.064608199999999, 53.3881169]",53.3881169,-6.064608199999999
643,395000,"20 Mulvey Park, Dundrum, Dundrum, Dublin 14",3,2,80.0,4938.0,Point,"[-6.243763899999999, 53.3011545]",53.3011545,-6.243763899999999
644,275000,"8 Kilbarron Drive, Kilmore, Kilmore, Dublin 5",3,1,73.0,3767.0,Point,"[-6.2240823, 53.394532]",53.394532,-6.2240823
645,275000,"6 Castlegrange Road, Clondalkin, Clondalkin, Dublin 22",3,2,75.0,3667.0,Point,"[-6.4247019, 53.3216264]",53.3216264,-6.4247019
645,275000,"6 Castlegrange Road, Clondalkin, Clondalkin, Dublin 22",3,2,75.0,3667.0,Point,"[-6.4247019, 53.3216264]",53.3216264,-6.4247019
956,275000,"6 Castlegrange Road, Clondalkin, Clondalkin, Dublin 22",3,2,75.0,3667.0,Point,"[-6.4247019, 53.3216264]",53.3216264,-6.4247019
956,275000,"6 Castlegrange Road, Clondalkin, Clondalkin, Dublin 22",3,2,75.0,3667.0,Point,"[-6.4247019, 53.3216264]",53.3216264,-6.4247019
646,385000,"18 Forest Lawn, Kingswood, Tallaght, D24 DHP9, Dublin 24",3,1,83.0,4639.0,Point,"[-6.3609032, 53.3086041]",53.3086041,-6.3609032
647,250000,"63 Ballyowen Hall, Ballyowen Lane, Lucan, Co. Dublin",2,2,62.0,4032.0,Point,"[-6.416407599999999, 53.3532759]",53.3532759,-6.416407599999999
648,350000,"115 Walsh Road, Drumcondra, Drumcondra, Dublin 3",2,2,70.0,5000.0,Point,"[-6.2605486, 53.3706684]",53.3706684,-6.2605486
649,295000,"Apartment 33, Shanagarry, Milltown, Dublin 6",1,1,38.0,7763.0,Point,"[-6.2495821, 53.3088793]",53.3088793,-6.2495821
650,299950,"Apartment 13, Block 1, Parklands, Santry, Dublin 9",2,2,62.0,4838.0,Point,"[-6.33995, 53.27483]",53.27483,-6.33995
651,450000,"32 Pearse Brothers Park, Rathfarnham, Dublin 16",4,1,84.0,5357.0,Point,"[-6.2876896, 53.2803523]",53.2803523,-6.2876896
652,445000,"17 Temple Court, Palatine Square, Stoneybatter, Dublin 7",2,1,67.0,6642.0,Point,"[-6.290104700000001, 53.3515058]",53.3515058,-6.290104700000001
653,500000,"148 Mulvey Park, Dundrum, Dundrum, Dublin 14",3,2,90.0,5556.0,Point,"[-6.2419343, 53.3019279]",53.3019279,-6.2419343
654,235000,"48 Myrtle House, Longfield Road, The Coast, Baldoyle, Dublin 13",1,2,59.0,3983.0,Point,"[-6.1471287, 53.3988429]",53.3988429,-6.1471287
655,215000,"Apartment 31, Cooldriona Court, Swords, Co. Dublin",1,1,39.0,5513.0,Point,"[-6.2224942, 53.4553486]",53.4553486,-6.2224942
656,295000,"68 Stonebridge Road, Clonsilla, Clonsilla, Dublin 15",3,1,85.0,3471.0,Point,"[-6.423134, 53.3898413]",53.3898413,-6.423134
657,625000,"Woodburn Cottage, Ballinclea Road, Killiney, Co. Dublin",2,2,91.0,6868.0,Point,"[-6.131370400000001, 53.266693]",53.266693,-6.131370400000001
658,320000,"16 The Court, Kingswood Heights, Tallaght, D24VYR2, Dublin 24",3,1,69.0,4638.0,Point,"[-6.3733568, 53.3044923]",53.3044923,-6.3733568
659,399000,"19 Saint Laurence Grove, Chapelizod, Chapelizod, Dublin 20",3,1,77.0,5182.0,Point,"[-6.3485127, 53.3500829]",53.3500829,-6.3485127
660,395000,"59 Clancarthy Road, Donnycarney, Donnycarney, Dublin 5",2,1,82.0,4817.0,Point,"[-6.2184291, 53.3737998]",53.3737998,-6.2184291
661,255000,"44 Hansted Crescent, Lucan, Co. Dublin",2,2,86.0,2965.0,Point,"[-6.450800699999999, 53.3373256]",53.3373256,-6.450800699999999
662,439950,"136 Gleann Na Ri, Druid Valley, Cabinteely, Dublin 18",3,4,126.0,3492.0,Point,"[-6.1425569, 53.2463089]",53.2463089,-6.1425569
663,260000,"2 The Courtyard, Clonsilla, Dublin 15",2,2,72.0,3611.0,Point,"[-6.4244504, 53.3868977]",53.3868977,-6.4244504
664,380000,"15 Taylor Hill Walk, Balbriggan, Co. Dublin",3,2,109.0,3486.0,Point,"[-6.2054773, 53.6095801]",53.6095801,-6.2054773
665,675000,"65 Watson Drive, Killiney, Co. Dublin",4,2,136.0,4963.0,Point,"[-6.1330379, 53.2593276]",53.2593276,-6.1330379
666,395000,"3 Rathmines Wood, Rathmines, Dublin 6",2,2,68.0,5809.0,Point,"[-6.268151899999999, 53.32525219999999]",53.32525219999999,-6.268151899999999
667,275000,"43 Rossmore Road, Ballyfermot, Ballyfermot, Dublin 10",2,1,60.0,4583.0,Point,"[-6.3553855, 53.3460657]",53.3460657,-6.3553855
668,525000,"Kinsealy Woods Chapel Road Kinsealy, Kinsealy, Co. Dublin",3,2,105.0,5000.0,Point,"[-6.1712358, 53.42392539999999]",53.42392539999999,-6.1712358
669,445000,"4 Dooroge, Ballyboughal, Co. Dublin",3,1,102.0,4363.0,Point,"[-6.266983799999999, 53.5134306]",53.5134306,-6.266983799999999
670,395000,"Carrig Hill, 44 Cowper Village, Rathmines, Dublin 6",2,1,53.0,7453.0,Point,"[-6.2631143, 53.31702989999999]",53.31702989999999,-6.2631143
671,375000,"6 Abbeydale Walk, Lucan, Co. Dublin",3,2,95.0,3947.0,Point,"[-6.4193713, 53.3449359]",53.3449359,-6.4193713
672,259000,"1 Spiddal Park, Ballyfermot, Ballyfermot, Dublin 10",3,1,69.0,3754.0,Point,"[-6.3659485, 53.3397117]",53.3397117,-6.3659485
673,415000,"1 Cuil Duin Way, Citywest, Co. Dublin",4,3,127.0,3268.0,Point,"[-6.429969199999999, 53.2851659]",53.2851659,-6.429969199999999
674,345000,"32 Oakcourt Lawn, Palmerstown, Dublin 20",2,2,80.0,4312.0,Point,"[-6.369963599999999, 53.3473763]",53.3473763,-6.369963599999999
675,695000,"48 Marian Road Rathfarnham Dublin 14, Rathfarnham, Dublin 14",4,2,139.0,5000.0,Point,"[-6.2977875, 53.29293819999999]",53.29293819999999,-6.2977875
676,270000,"20 Friarsland Crecent, Clonskeagh, Dublin 14",1,1,53.0,5094.0,Point,"[-6.2387736, 53.2991657]",53.2991657,-6.2387736
677,1750000,"133 Strand Road, Sandymount, Dublin 4",4,2,219.0,7991.0,Point,"[-6.2052266, 53.3179971]",53.3179971,-6.2052266
678,550000,"Apt. 53 Salthill Monkstown, Monkstown, Co. Dublin",2,1,55.0,10000.0,Point,"[-6.1522039, 53.2952928]",53.2952928,-6.1522039
679,220000,"3 Marlfield Terrace, Tallaght, Tallaght, Dublin 24",2,1,58.0,3793.0,Point,"[-6.3709682, 53.2716678]",53.2716678,-6.3709682
680,695000,"11 Minnow Brook, Terenure Road West, Terenure, Dublin 6",4,3,161.0,4317.0,Point,"[-6.2847328, 53.3096589]",53.3096589,-6.2847328
681,550000,"Apartment 502, Longboat Quay South, Grand Canal Dock, Dublin 2",3,2,87.0,6322.0,Point,"[-6.236741899999999, 53.3448314]",53.3448314,-6.236741899999999
682,1675000,"Glencar, Kilteragh Drive, Foxrock, Dublin 18",5,3,330.0,5076.0,Point,"[-6.1732144, 53.2673227]",53.2673227,-6.1732144
683,245000,"18 Westpark Crescent, Garters Lane, Saggart, Co. Dublin",2,1,104.0,2356.0,Point,"[-6.4381086, 53.291052]",53.291052,-6.4381086
684,634950,"51 Cabinteely Avenue, Cabinteely, Cabinteely, Dublin 18",3,2,111.0,5720.0,Point,"[-6.152336999999999, 53.2667805]",53.2667805,-6.152336999999999
685,499500,"Apartment 6, Mount Prospect House, Clontarf, Dublin 3",2,1,77.0,6487.0,Point,"[-6.1732873, 53.3670817]",53.3670817,-6.1732873
686,265000,"76 Seagrave Drive, Finglas, D11PR68, Dublin 11",3,3,126.0,2103.0,Point,"[-6.293483900000001, 53.4055426]",53.4055426,-6.293483900000001
687,595000,"Apartment 13, Rockwell Cove, Blackrock, Co. Dublin",2,1,78.0,7628.0,Point,"[-6.1742197, 53.3010744]",53.3010744,-6.1742197
688,1700000,"2 Linden Fields Grove Avenue Blackrock, Blackrock, Co. Dublin",5,5,255.0,6667.0,Point,"[-6.192825, 53.2934356]",53.2934356,-6.192825
689,425000,"4 Templeview Close, Clarehall, Dublin 13",3,2,91.0,4670.0,Point,"[-6.1761078, 53.4009904]",53.4009904,-6.1761078
690,270000,"29 Hampton Wood Park, Finglas, Dublin 11",2,2,75.0,3600.0,Point,"[-6.287152499999999, 53.4056776]",53.4056776,-6.287152499999999
691,375000,"102 Caledon Road, East Wall, D03DA32, Dublin 3",2,1,74.0,5068.0,Point,"[-6.2358527, 53.3545823]",53.3545823,-6.2358527
692,285000,"Apartment 51, Pier 19, Dublin 8",2,1,49.0,5816.0,Point,"[-6.2809393, 53.34588859999999]",53.34588859999999,-6.2809393
693,235000,"Apt 13, Belvedere Court, 30 North Great Georges Street, Dublin 1",1,1,41.0,5732.0,Point,"[-6.2596375, 53.3538562]",53.3538562,-6.2596375
694,270000,"Apartment 104, Premier Square, Dublin 11",2,2,70.0,3857.0,Point,"[-6.289761899999999, 53.3817894]",53.3817894,-6.289761899999999
695,350000,"Apartment 64, Phoenix, Riverpark Apartments, Islandbridge, Dublin 8",2,1,54.0,6481.0,Point,"[-6.3034073, 53.3479385]",53.3479385,-6.3034073
696,1050000,"'Cruagh', Cruagh Road, Rathfarnham, Dublin 16",3,3,169.0,6213.0,Point,"[-6.3031793, 53.2539288]",53.2539288,-6.3031793
697,225000,"7 Clareville House, Harold's Cross Road, Harold's Cross, Dublin 6",1,1,39.0,5769.0,Point,"[-6.280215999999999, 53.31818579999999]",53.31818579999999,-6.280215999999999
698,498000,"140 Bushy Park House, Terenure, Dublin 6W",2,2,78.0,6385.0,Point,"[-6.2962077, 53.3011209]",53.3011209,-6.2962077
699,355000,"20 Hastings Street, Ringsend, Dublin 4",2,1,65.0,5462.0,Point,"[-6.232441199999999, 53.3413264]",53.3413264,-6.232441199999999
700,495000,"117 Rockfield Avenue, Perrystown, Dublin 12",3,1,94.0,5266.0,Point,"[-6.311168299999999, 53.31133029999999]",53.31133029999999,-6.311168299999999
701,540000,"Apartment 13, Kelston Hall, Kelston View, Foxrock, Dublin 18",2,2,101.0,5347.0,Point,"[-6.1837886, 53.2772222]",53.2772222,-6.1837886
702,625000,"197 Apples Road, Wedgewood, Sandyford, Dublin 18",3,2,115.0,5435.0,Point,"[-6.224876999999999, 53.2793573]",53.2793573,-6.224876999999999
703,230000,"14 The View, Larch Hill, Santry, Dublin 9",2,1,63.0,3651.0,Point,"[-6.2295273, 53.39833849999999]",53.39833849999999,-6.2295273
704,165000,"27 Deerpark Place, Tallaght, Dublin 24",1,1,39.0,4231.0,Point,"[-6.3749014, 53.269586]",53.269586,-6.3749014
705,450000,"41 Ashington Dale, Navan Road, Dublin 7",3,3,94.0,4787.0,Point,"[-6.3167589, 53.3748068]",53.3748068,-6.3167589
706,1150000,"4 Fairacre, The Warren, Malahide, Co. Dublin",4,3,278.0,4137.0,Point,"[-6.1830133, 53.4509788]",53.4509788,-6.1830133
707,325000,"181 Crosbies Yard, Ossory Road, North Strand, Dublin 3",2,1,62.0,5242.0,Point,"[-6.2419404, 53.3553314]",53.3553314,-6.2419404
708,430000,"9 Hawthorn House, Carrickmines Green, Carrickmines, Dublin 18",2,2,86.0,5000.0,Point,"[-6.179058599999999, 53.24918410000001]",53.24918410000001,-6.179058599999999
709,595000,"46 St. Brigid's Park, Foxrock, Dublin 18",3,2,85.0,7000.0,Point,"[-6.1703369, 53.2671352]",53.2671352,-6.1703369
710,675000,"42 Shrewsbury Square, Ballsbridge, Dublin 4",2,2,97.0,6959.0,Point,"[-6.2202639, 53.3260184]",53.3260184,-6.2202639
711,1100000,"25 Philipsburgh Avenue, Fairview, Dublin 3",8,8,177.0,6215.0,Point,"[-6.240186899999999, 53.3636511]",53.3636511,-6.240186899999999
712,475000,"155 Rosary Terrace, Irishtown, Dublin 4",2,1,83.0,5723.0,Point,"[-6.2250618, 53.3398383]",53.3398383,-6.2250618
713,525000,"45 Furry Park Court, Howth Road, Killester, Dublin 5",3,3,87.0,6034.0,Point,"[-6.1984064, 53.3734026]",53.3734026,-6.1984064
714,450000,"66 Springvale, Edmondstown Road, Rathfarnham, Dublin 16",3,3,98.0,4592.0,Point,"[-6.2977924, 53.2774796]",53.2774796,-6.2977924
715,595000,"Apartment 15, 18 Lower Baggot Street, Dublin 2",2,2,86.0,6919.0,Point,"[-6.2509161, 53.33810889999999]",53.33810889999999,-6.2509161
716,795000,"9 Kelston Park, Foxrock, Dublin 18",4,4,164.0,4848.0,Point,"[-6.1859737, 53.2772188]",53.2772188,-6.1859737
717,395000,"14 Brackenstown Avenue, Swords, Co. Dublin",3,2,110.0,3591.0,Point,"[-6.228687000000001, 53.4607184]",53.4607184,-6.228687000000001
718,875000,"4 Fairfield Road, Glasnevin, Dublin 9",4,2,168.0,5208.0,Point,"[-6.267824, 53.3699895]",53.3699895,-6.267824
